[
  {
    "name": "SP (E-ENE) Kachanoll",
    "latitude": 42.9711894496791,
    "longitude": 21.0862436941589
  },
  {
    "name": "SP (SW) Mokna",
    "latitude": 42.8645327899358,
    "longitude": 20.5544962049099
  },
  {
    "name": "SP (SE-SSE) Black Top",
    "latitude": 42.6827903713185,
    "longitude": 20.2642293861504
  },
  {
    "name": "SP (E-SE) Gjeravica",
    "latitude": 42.5273572259096,
    "longitude": 20.1558117761361
  },
  {
    "name": "SP (W) Zatriq",
    "latitude": 42.4484328353302,
    "longitude": 20.6223819826044
  },
  {
    "name": "SP (SW-NW) Skorobiste_Skorobisht",
    "latitude": 42.2288064424887,
    "longitude": 20.8340462432902
  },
  {
    "name": "SP (NNW-SW) Novosel",
    "latitude": 42.2040748060814,
    "longitude": 20.7767158290411
  },
  {
    "name": "SP (S) Pusi Thate",
    "latitude": 42.1167454527842,
    "longitude": 20.392389833887
  },
  {
    "name": "SPK (SSW) Rana / Hjedhme  Sand Dune",
    "latitude": 41.8345262449878,
    "longitude": 19.5372665718349
  },
  {
    "name": "LP Dajti",
    "latitude": 41.3702,
    "longitude": 19.8604
  },
  {
    "name": "SP (W-WSW) Tirana_Dajti (Dajtit Mountain)",
    "latitude": 41.3691354473037,
    "longitude": 19.9036613480323
  },
  {
    "name": "SPK (W-WSW) Durres",
    "latitude": 41.3181520410974,
    "longitude": 19.434379808118
  },
  {
    "name": "SP (SE) Elbasan",
    "latitude": 41.112173373279,
    "longitude": 20.0121999895231
  },
  {
    "name": "SP (E) Shpirag_Berat",
    "latitude": 40.6686827336506,
    "longitude": 19.8666568509271
  },
  {
    "name": "SP (W) Shpirag_Berat",
    "latitude": 40.6658712497722,
    "longitude": 19.8657329060828
  },
  {
    "name": "Tomorr mountain_Poliçan",
    "latitude": 40.6326347367612,
    "longitude": 20.1619725087898
  },
  {
    "name": "LP Korca 1",
    "latitude": 40.6168,
    "longitude": 20.8065
  },
  {
    "name": "SP (W-WNW) Kiorc_Korca_(Korçë) Morava Mountain",
    "latitude": 40.6103651842654,
    "longitude": 20.8137837013256
  },
  {
    "name": "LP Korca 2",
    "latitude": 40.6003385424324,
    "longitude": 20.7932760447213
  },
  {
    "name": "LP Kanine_Shashika-Eagle's Sky_Vlore Beach",
    "latitude": 40.4332779152934,
    "longitude": 19.4944516620502
  },
  {
    "name": "SPK (W-NW) Vlora_Kanine_Shashika",
    "latitude": 40.4106317347175,
    "longitude": 19.5065307472116
  },
  {
    "name": "SPK (SW-S) Llogara_Antennas-Eagle's Sky",
    "latitude": 40.1987982334929,
    "longitude": 19.5738252168296
  },
  {
    "name": "SPK (SW-SE) Llogara Pass_Dhermi-Eagle's Sky",
    "latitude": 40.1882498514405,
    "longitude": 19.5992440389298
  },
  {
    "name": "SP (SW-WSW) Çayup_Shajupi Gjirokastra",
    "latitude": 40.179585098976,
    "longitude": 20.1610582529757
  },
  {
    "name": "LP Dhermi_Drymades Beach-Eagle's Sky",
    "latitude": 40.1678985606046,
    "longitude": 19.5863385021
  },
  {
    "name": "SPK (S-SSW) Drymades beach",
    "latitude": 40.160978959518,
    "longitude": 19.6040886348391
  },
  {
    "name": "LP Dhermi Beach",
    "latitude": 40.1575666715262,
    "longitude": 19.6060601972438
  },
  {
    "name": "SPK (SW) Dhermi",
    "latitude": 40.1497402580227,
    "longitude": 19.6486217259632
  },
  {
    "name": "LP Cayup",
    "latitude": 40.1491981877044,
    "longitude": 20.1569544951789
  },
  {
    "name": "LP Dhermi Beach",
    "latitude": 40.1427791570963,
    "longitude": 19.6373790795369
  },
  {
    "name": "SP (W-SW) Pilur",
    "latitude": 40.1290713049886,
    "longitude": 19.7721118500628
  },
  {
    "name": "SP (S-SW) Mesopotam",
    "latitude": 39.9254,
    "longitude": 20.1125
  },
  {
    "name": "SP (S-SSE) Pic de Besali",
    "latitude": 42.6376408988066,
    "longitude": 1.53782596683283
  },
  {
    "name": "SP (SE) Coma Pedrosa",
    "latitude": 42.590651702738,
    "longitude": 1.44338003871552
  },
  {
    "name": "SP (SW-W) Pic de Casamanya",
    "latitude": 42.5841079156868,
    "longitude": 1.56444659554542
  },
  {
    "name": "SP (SW-WSW) Port Envalira_Maia",
    "latitude": 42.5543965509092,
    "longitude": 1.71803410588984
  },
  {
    "name": "SP (SE) Coll de la Botella",
    "latitude": 42.5536966373214,
    "longitude": 1.42508807737298
  },
  {
    "name": "SP (WNW-WSW, SE-E) Vallnord_Coll de la Botella_Pal Ski Resort",
    "latitude": 42.5470406104315,
    "longitude": 1.45291695705429
  },
  {
    "name": "SP (W) Encamp_Cap del Rep",
    "latitude": 42.543303747416,
    "longitude": 1.60946057509751
  },
  {
    "name": "SP (S-SE) Borda Cardago",
    "latitude": 42.5400817965174,
    "longitude": 1.57696337994369
  },
  {
    "name": "SP (S) Intermig del Cap del Rep",
    "latitude": 42.538963430057,
    "longitude": 1.60158137594666
  },
  {
    "name": "LP Grau Roig",
    "latitude": 42.5342291490472,
    "longitude": 1.70127200060459
  },
  {
    "name": "SP (W-SW) Port d'Envalira_Grau Roig Antennas",
    "latitude": 42.5333809510911,
    "longitude": 1.71586638136192
  },
  {
    "name": "LP Beixalis_Encamp_Prat del Rich",
    "latitude": 42.5333498727542,
    "longitude": 1.57408496943639
  },
  {
    "name": "SP (E) Beixalis_Encamp",
    "latitude": 42.5308692096159,
    "longitude": 1.55373216290123
  },
  {
    "name": "SP (S) Pic del Carroy_Carroi",
    "latitude": 42.5137921905873,
    "longitude": 1.49604263998881
  },
  {
    "name": "SP (SW) Grau Roig_Via Ferrata",
    "latitude": 42.5130032796454,
    "longitude": 1.71132287015037
  },
  {
    "name": "SP (NW-SW) La Rabassa_Sant Julia de Loria",
    "latitude": 42.450020781883,
    "longitude": 1.55500292348469
  },
  {
    "name": "SP (SE, SW) Méranges",
    "latitude": 42.4486462658356,
    "longitude": 1.80696547749889
  },
  {
    "name": "SPK (NNW) Knokke-Het Zoute",
    "latitude": 51.3638,
    "longitude": 3.338
  },
  {
    "name": "Oud-Turnhout",
    "latitude": 51.2923476212427,
    "longitude": 5.05349980942957
  },
  {
    "name": "SPK (NNW) Bredene",
    "latitude": 51.2471816361817,
    "longitude": 2.95295572896752
  },
  {
    "name": "SPK (NNW-NW) Oostduinkerke",
    "latitude": 51.1278921729676,
    "longitude": 2.65164513639726
  },
  {
    "name": "P Pente Boom",
    "latitude": 51.0935452022,
    "longitude": 4.3861217704
  },
  {
    "name": "UH (SW-W) Boom_De Schorre",
    "latitude": 51.0924797349255,
    "longitude": 4.38666242343094
  },
  {
    "name": "UH (SW-SE) As (Limburg)",
    "latitude": 51.0090212421313,
    "longitude": 5.54913280898013
  },
  {
    "name": "LP As (Limburg)",
    "latitude": 51.0055,
    "longitude": 5.54638
  },
  {
    "name": "UH (NNE-NE) Winterslag",
    "latitude": 50.9873338924913,
    "longitude": 5.47763297612742
  },
  {
    "name": "UH (S) Teuven",
    "latitude": 50.7604508039594,
    "longitude": 5.87957908667694
  },
  {
    "name": "SPW (WNW, ESE, SW, NE) Beauvechain",
    "latitude": 50.75079735057,
    "longitude": 4.76443147262466
  },
  {
    "name": "SPW (E,W) Waremme",
    "latitude": 50.677,
    "longitude": 5.2575
  },
  {
    "name": "UH (W) Prayon",
    "latitude": 50.5839747333543,
    "longitude": 5.67983459142864
  },
  {
    "name": "LP Prayon",
    "latitude": 50.5779196517257,
    "longitude": 5.65840705958014
  },
  {
    "name": "SP (S) Olne",
    "latitude": 50.5773309014828,
    "longitude": 5.75903736618187
  },
  {
    "name": "SP (NE) Prayon",
    "latitude": 50.5759407879742,
    "longitude": 5.65585365975838
  },
  {
    "name": "LP Olne",
    "latitude": 50.5743,
    "longitude": 5.7624
  },
  {
    "name": "SP (W) d'Avister",
    "latitude": 50.5475485689779,
    "longitude": 5.57178094975453
  },
  {
    "name": "LP Avister",
    "latitude": 50.5448239304936,
    "longitude": 5.56862122592623
  },
  {
    "name": "SP (NNE) Andenne",
    "latitude": 50.4850522173627,
    "longitude": 5.07601737570675
  },
  {
    "name": "Chapelle-Lez-Herlaimont",
    "latitude": 50.4578844093725,
    "longitude": 4.2922963090733
  },
  {
    "name": "UH (S-SW, N) Terril de Strepy (Strépy)",
    "latitude": 50.4567608774361,
    "longitude": 4.13375099919553
  },
  {
    "name": "LP Terril de Strepy",
    "latitude": 50.4551,
    "longitude": 4.133
  },
  {
    "name": "SP (SE) Terril du Roton",
    "latitude": 50.4417050970492,
    "longitude": 4.54089877543978
  },
  {
    "name": "UH (SE) Terril du Roton",
    "latitude": 50.4410190624412,
    "longitude": 4.54402716079812
  },
  {
    "name": "LP Terril du Roton (Farciennes)",
    "latitude": 50.4403074758132,
    "longitude": 4.54459771082089
  },
  {
    "name": "SP (S-SE, N) Terril van Levant",
    "latitude": 50.4362237107609,
    "longitude": 3.90225479373036
  },
  {
    "name": "LP Terril du Levant",
    "latitude": 50.4338,
    "longitude": 3.9021
  },
  {
    "name": "SP (NE) Floreffe",
    "latitude": 50.431056268985,
    "longitude": 4.74452413594989
  },
  {
    "name": "UH (N) Terril Quaregnon",
    "latitude": 50.430345999819,
    "longitude": 3.87172500001642
  },
  {
    "name": "Hornu ex LP",
    "latitude": 50.4256,
    "longitude": 3.8168
  },
  {
    "name": "CLOSED Hornu",
    "latitude": 50.4245,
    "longitude": 3.8187
  },
  {
    "name": "LP Hamoir_Hai des Laies",
    "latitude": 50.417,
    "longitude": 5.513
  },
  {
    "name": "SP (SE) Hamoir_Hai des Laies",
    "latitude": 50.4169,
    "longitude": 5.5081
  },
  {
    "name": "SPW-HG (ESE, WNW) Büllingen",
    "latitude": 50.4159742946253,
    "longitude": 6.2740022674529
  },
  {
    "name": "UH (S) Montignies",
    "latitude": 50.4125273143472,
    "longitude": 4.47373021670699
  },
  {
    "name": "LP Terril d'Anderlues",
    "latitude": 50.411,
    "longitude": 4.2946
  },
  {
    "name": "UH (N-NNW, S) Terril d'Anderlues",
    "latitude": 50.4095,
    "longitude": 4.296
  },
  {
    "name": "SP (W) Coo-West",
    "latitude": 50.3988140645394,
    "longitude": 5.88768285631937
  },
  {
    "name": "LP Coo",
    "latitude": 50.3985,
    "longitude": 5.874
  },
  {
    "name": "SP (SSW) Coo Sud",
    "latitude": 50.3958297458806,
    "longitude": 5.88819065250373
  },
  {
    "name": "Stavelot N+S",
    "latitude": 50.3879651634343,
    "longitude": 5.93520648369477
  },
  {
    "name": "SPW-HG (E, W) Maillen",
    "latitude": 50.3751795656835,
    "longitude": 4.92639158018587
  },
  {
    "name": "SP (SSW-SSE) Les 7 Meuses",
    "latitude": 50.3539938358631,
    "longitude": 4.86206366113044
  },
  {
    "name": "LP 7 Meuses 2",
    "latitude": 50.3515626750924,
    "longitude": 4.85729566880209
  },
  {
    "name": "LP Les 7 Meuses 1",
    "latitude": 50.3465,
    "longitude": 4.8605
  },
  {
    "name": "LP Marcourt",
    "latitude": 50.2175,
    "longitude": 5.5207
  },
  {
    "name": "SP (E) Marcourt",
    "latitude": 50.2159223140468,
    "longitude": 5.51653995667678
  },
  {
    "name": "SP (SW-S) La Roche_Farneur",
    "latitude": 50.1865644015472,
    "longitude": 5.55679792888419
  },
  {
    "name": "LP La Roche_Farneur",
    "latitude": 50.1845348203812,
    "longitude": 5.55445013620259
  },
  {
    "name": "LP Rochefort_Abbaye",
    "latitude": 50.1837926513117,
    "longitude": 5.22297451663301
  },
  {
    "name": "SP (NW) Rochefort_Lhoast - Abbaye",
    "latitude": 50.1835584070545,
    "longitude": 5.2291294725553
  },
  {
    "name": "LP La Roche - Corimont",
    "latitude": 50.1809,
    "longitude": 5.5673
  },
  {
    "name": "SP (N-NW) La Roche_Corimont (Corumont)",
    "latitude": 50.1788604231948,
    "longitude": 5.56860735280523
  },
  {
    "name": "SP (SW) Maboge_Les Crestelles",
    "latitude": 50.1744018108674,
    "longitude": 5.64092621348633
  },
  {
    "name": "LP Maboge - Les Crestelles 1",
    "latitude": 50.1725469454666,
    "longitude": 5.63325988076234
  },
  {
    "name": "LP Maboge - Les Crestelles 2",
    "latitude": 50.1715177625803,
    "longitude": 5.63548143400769
  },
  {
    "name": "LP Rochefort_Le Rond du Roi",
    "latitude": 50.1519,
    "longitude": 5.2024
  },
  {
    "name": "SP (N) Rochefort_Le Rond du Roi",
    "latitude": 50.1497,
    "longitude": 5.2061
  },
  {
    "name": "SP (S) Han-sur-Lesse_Le Belvédere",
    "latitude": 50.1345374883361,
    "longitude": 5.19888586390763
  },
  {
    "name": "LP Le Belvédere",
    "latitude": 50.1315931743566,
    "longitude": 5.19873841384453
  },
  {
    "name": "UH (N-NE) Han-sur-Lesse",
    "latitude": 50.122719444444,
    "longitude": 5.1626694444444
  },
  {
    "name": "LP Beauraing",
    "latitude": 50.1164825882093,
    "longitude": 5.01345823421246
  },
  {
    "name": "SP (NNW-NNE) Beauraing",
    "latitude": 50.1129571095897,
    "longitude": 5.00998477194361
  },
  {
    "name": "SP (NW-N) La Roche de Saloru_Membre sur Semois",
    "latitude": 49.8628502619555,
    "longitude": 4.91071464850157
  },
  {
    "name": "SP (SW) Le Jambon de la Semois",
    "latitude": 49.8542471916123,
    "longitude": 4.93911725438322
  },
  {
    "name": "SP (S-SSW) Rochehaut",
    "latitude": 49.8394890235418,
    "longitude": 5.00243970179947
  },
  {
    "name": "LP Rochehaut",
    "latitude": 49.8372112734557,
    "longitude": 5.0005659190761
  },
  {
    "name": "LP Corbion",
    "latitude": 49.8085,
    "longitude": 5.003
  },
  {
    "name": "SP (NNE) Corbion",
    "latitude": 49.8066,
    "longitude": 5.0005
  },
  {
    "name": "LP Sommethonne",
    "latitude": 49.5715,
    "longitude": 5.4562
  },
  {
    "name": "UH (NW) Sommethonne",
    "latitude": 49.5709,
    "longitude": 5.4588
  },
  {
    "name": "SP (NE-ENE) Gomila",
    "latitude": 44.9226713406282,
    "longitude": 16.052554772866
  },
  {
    "name": "SP (NE) Sanski Most  \"Magarice\"",
    "latitude": 44.7550320704981,
    "longitude": 16.6294496065032
  },
  {
    "name": "SP (E-NE) Banja Luka_Ponir",
    "latitude": 44.7360972385387,
    "longitude": 17.2272122675573
  },
  {
    "name": "SP (NW) Lipovac",
    "latitude": 44.6935403382308,
    "longitude": 17.3066471058116
  },
  {
    "name": "SP (S) Lipovac",
    "latitude": 44.6808985595466,
    "longitude": 17.3030264167983
  },
  {
    "name": "SP (NE-N) Gostilj",
    "latitude": 44.6616011436732,
    "longitude": 18.2017327519961
  },
  {
    "name": "SP (NNW-WNW) Gostilj",
    "latitude": 44.660365865952,
    "longitude": 18.1992705085528
  },
  {
    "name": "SP (SW) Ruj 2",
    "latitude": 44.6278285397642,
    "longitude": 18.1160995408858
  },
  {
    "name": "SP (SE) Ruj 1",
    "latitude": 44.6273326635985,
    "longitude": 18.1205888534168
  },
  {
    "name": "LP Ruj",
    "latitude": 44.6228,
    "longitude": 18.1014
  },
  {
    "name": "SP (W-SW) Krupa na Vrbasu",
    "latitude": 44.6206883793624,
    "longitude": 17.1605616186444
  },
  {
    "name": "SP (NE-E) Grcka Gradina_Manjaca Velika Gradina_Manjača",
    "latitude": 44.6171730281496,
    "longitude": 16.9577164049886
  },
  {
    "name": "LP Krupa na Vrbasu",
    "latitude": 44.6146313881516,
    "longitude": 17.1438765638908
  },
  {
    "name": "SP (SW) Manjaca Repeater",
    "latitude": 44.5920997601706,
    "longitude": 16.9713411095354
  },
  {
    "name": "LP Manjaca",
    "latitude": 44.5901793639874,
    "longitude": 16.9526429016072
  },
  {
    "name": "SP (NW) Borci_Bugojno",
    "latitude": 44.5532,
    "longitude": 17.49
  },
  {
    "name": "LP Borci",
    "latitude": 44.5496899861788,
    "longitude": 17.4764842118238
  },
  {
    "name": "SP (SW-W) Čemernica",
    "latitude": 44.5213121827912,
    "longitude": 17.2131193705589
  },
  {
    "name": "SP (NE-ENE) Ocaus",
    "latitude": 44.5080191989406,
    "longitude": 17.6380779371398
  },
  {
    "name": "SP (NE-NNE) Klekovaca",
    "latitude": 44.4314114453016,
    "longitude": 16.5071697792834
  },
  {
    "name": "Zepče",
    "latitude": 44.4259687979985,
    "longitude": 18.0311458233715
  },
  {
    "name": "LP Balkani",
    "latitude": 44.4168685046379,
    "longitude": 17.0461770916558
  },
  {
    "name": "SP (NE) Lisina_Mrkonjic Grad",
    "latitude": 44.3951469430205,
    "longitude": 17.0450136559516
  },
  {
    "name": "SP (NW-SW) Velika Strazbenica",
    "latitude": 44.3916529317973,
    "longitude": 16.4271076714402
  },
  {
    "name": "LP Velika Strazbenica_Drvar",
    "latitude": 44.3770245460395,
    "longitude": 16.3874808418284
  },
  {
    "name": "LP Sinjakovo_Jezero",
    "latitude": 44.3575,
    "longitude": 17.163
  },
  {
    "name": "SP (N-NE) Sinjakovo 1",
    "latitude": 44.348808,
    "longitude": 17.133497
  },
  {
    "name": "SP (S-SSW) Sinjakovo 2",
    "latitude": 44.3475562171763,
    "longitude": 17.133037246836
  },
  {
    "name": "SP (S-SE) Vlasic (Vlašić)_Travnik 1",
    "latitude": 44.2748288203193,
    "longitude": 17.6041627561145
  },
  {
    "name": "SP (SW-SE) Vlasic (Vlašić)_Galica_Travnik 2",
    "latitude": 44.2680560620595,
    "longitude": 17.5955316993518
  },
  {
    "name": "SP (S-E) Lisac_Zenica",
    "latitude": 44.266155744219,
    "longitude": 17.851272515412
  },
  {
    "name": "SP (SW-S) Smetovi",
    "latitude": 44.2443468193603,
    "longitude": 17.9592092780488
  },
  {
    "name": "LP Lisac_Zenica",
    "latitude": 44.2418837682556,
    "longitude": 17.8682600437878
  },
  {
    "name": "LP Vlasic_Travnik",
    "latitude": 44.2382402976993,
    "longitude": 17.6053891271837
  },
  {
    "name": "LP Zenica",
    "latitude": 44.190037342633,
    "longitude": 17.916262987262
  },
  {
    "name": "SP (N-NE) Gornja Zenica",
    "latitude": 44.1807987066092,
    "longitude": 17.9138387703778
  },
  {
    "name": "SP (S) Perun",
    "latitude": 44.12341684015,
    "longitude": 18.2748844177192
  },
  {
    "name": "SP (NE) Garacici_Poletište",
    "latitude": 44.0340425335959,
    "longitude": 17.4134595197291
  },
  {
    "name": "SP (W) Breza",
    "latitude": 44.0324479242154,
    "longitude": 18.2945039645102
  },
  {
    "name": "LP Kupres_Stozer",
    "latitude": 43.9923167366441,
    "longitude": 17.2963892676793
  },
  {
    "name": "SP (ENE) Kupres_Stozer",
    "latitude": 43.9912866964198,
    "longitude": 17.3219686857528
  },
  {
    "name": "SP (W, SW) Kupres_Stozer",
    "latitude": 43.9892837365466,
    "longitude": 17.3179949150453
  },
  {
    "name": "LP Pyramid",
    "latitude": 43.9787,
    "longitude": 18.1886
  },
  {
    "name": "SP (NW-W) Pyramid_Visoko",
    "latitude": 43.9772,
    "longitude": 18.1758
  },
  {
    "name": "SP (NNE) Kupres_Stozer low",
    "latitude": 43.9601344773823,
    "longitude": 17.2791188621173
  },
  {
    "name": "SP (E) Kupres_Adria Ski",
    "latitude": 43.9534096592306,
    "longitude": 17.1628799628783
  },
  {
    "name": "LP Kupres",
    "latitude": 43.9512621476487,
    "longitude": 17.1885589701984
  },
  {
    "name": "SP (SW) Gornji Vakuf_Vranica",
    "latitude": 43.9507833830242,
    "longitude": 17.6260007247955
  },
  {
    "name": "SP (E-NE) Bosch Pumpa",
    "latitude": 43.9429353377665,
    "longitude": 17.1830807278456
  },
  {
    "name": "SP (SW-SSW) Mrkovici_Barice",
    "latitude": 43.9023,
    "longitude": 18.4342666666667
  },
  {
    "name": "SP (W) Romanija",
    "latitude": 43.890244997906,
    "longitude": 18.6501077324582
  },
  {
    "name": "LP Romanija",
    "latitude": 43.8883851946196,
    "longitude": 18.6233188501083
  },
  {
    "name": "LP Mrkovicii",
    "latitude": 43.8879666666667,
    "longitude": 18.433
  },
  {
    "name": "SP (NW-NE) Trebevic_Sarajevo",
    "latitude": 43.8417253426918,
    "longitude": 18.4539477196886
  },
  {
    "name": "SP (SSW-SW) Bil Hill",
    "latitude": 43.8376291513814,
    "longitude": 17.3802036136744
  },
  {
    "name": "LP Trebevic",
    "latitude": 43.8345,
    "longitude": 18.4141666666667
  },
  {
    "name": "SP (SW-W) Trebevic_Sarajevo",
    "latitude": 43.8246197882227,
    "longitude": 18.4431961616354
  },
  {
    "name": "SP (S-SW) Trebevic_Sarajevo",
    "latitude": 43.818717,
    "longitude": 18.45635
  },
  {
    "name": "LP Igman",
    "latitude": 43.8076979921032,
    "longitude": 18.2949618197032
  },
  {
    "name": "SP (NE-E) Igman_Sarajevo",
    "latitude": 43.7981702397916,
    "longitude": 18.2858261725266
  },
  {
    "name": "SP (S) Jelinovac",
    "latitude": 43.7531561929676,
    "longitude": 17.1625213928746
  },
  {
    "name": "LP Jahorina",
    "latitude": 43.7301,
    "longitude": 18.6424
  },
  {
    "name": "SP (NW-N) Tusnica (Tušnica)",
    "latitude": 43.722691536257,
    "longitude": 17.0934510002708
  },
  {
    "name": "SP (S) Tusnica (Tušnica)",
    "latitude": 43.7204901920758,
    "longitude": 17.0965475149713
  },
  {
    "name": "SP (N-NE) Jahorina",
    "latitude": 43.7182166666667,
    "longitude": 18.58215
  },
  {
    "name": "SP (S) Stipanjici",
    "latitude": 43.7154933026519,
    "longitude": 17.1554720402029
  },
  {
    "name": "LP Babin Dol",
    "latitude": 43.7146173184218,
    "longitude": 18.2835480635252
  },
  {
    "name": "SP (N-NE) Sarajevo-Bjelašnica_Trosjed",
    "latitude": 43.71111111,
    "longitude": 18.26972222
  },
  {
    "name": "SP (NE-E) Bjelašnica_Medjustanica",
    "latitude": 43.706918857824,
    "longitude": 18.2641214336495
  },
  {
    "name": "SP (NE) Bjelašnica",
    "latitude": 43.704,
    "longitude": 18.257
  },
  {
    "name": "SP (S) Bjelašnica_Observatory",
    "latitude": 43.7027149771481,
    "longitude": 18.2590243418857
  },
  {
    "name": "SP (S-SE) Bjelasnica_",
    "latitude": 43.6891,
    "longitude": 18.2648166666667
  },
  {
    "name": "SP (SW) Lib",
    "latitude": 43.6503570999876,
    "longitude": 17.3114276071778
  },
  {
    "name": "LP Lib",
    "latitude": 43.6499629843268,
    "longitude": 17.3049835657609
  },
  {
    "name": "SP (SW) Lib 2",
    "latitude": 43.6349515884797,
    "longitude": 17.3146097987211
  },
  {
    "name": "SP (SW-SE) Blidinje",
    "latitude": 43.6159098068369,
    "longitude": 17.4928323537205
  },
  {
    "name": "LP Blidinje",
    "latitude": 43.615604446152,
    "longitude": 17.4861388494169
  },
  {
    "name": "SP (S-SSW) Biljaca_Rakitno",
    "latitude": 43.5514262050304,
    "longitude": 17.4610445695449
  },
  {
    "name": "Boracko",
    "latitude": 43.5452623997427,
    "longitude": 18.0218779254152
  },
  {
    "name": "LP Biljaca",
    "latitude": 43.5421,
    "longitude": 17.4377
  },
  {
    "name": "SP (SW) Kocerin",
    "latitude": 43.4047,
    "longitude": 17.4514
  },
  {
    "name": "LP Kocerin",
    "latitude": 43.394976820897,
    "longitude": 17.4588076204677
  },
  {
    "name": "SP (SE) Mostar_Planinica",
    "latitude": 43.3777501720188,
    "longitude": 17.782996868226
  },
  {
    "name": "SP (SW-W) Mostar_Planinica",
    "latitude": 43.3747794931309,
    "longitude": 17.7716458882376
  },
  {
    "name": "SP (N) Velež Sjever",
    "latitude": 43.3598562439751,
    "longitude": 17.9220044747173
  },
  {
    "name": "LP Sjeverni logor",
    "latitude": 43.3580415274817,
    "longitude": 17.8100360895387
  },
  {
    "name": "LP Vihovići",
    "latitude": 43.3569,
    "longitude": 17.7896
  },
  {
    "name": "SP (WSW-SW) Pogled",
    "latitude": 43.3560602257931,
    "longitude": 17.932314601674
  },
  {
    "name": "LP Mostar alternative 1",
    "latitude": 43.3558061792225,
    "longitude": 17.8055483519833
  },
  {
    "name": "LP emergency landing \"Radeš\"",
    "latitude": 43.3553026346492,
    "longitude": 17.7683162069033
  },
  {
    "name": "SP (NW-NE) Fortica",
    "latitude": 43.3535589062359,
    "longitude": 17.8316140765922
  },
  {
    "name": "LP Mostar_Stadium \"Zrinjski\"",
    "latitude": 43.3457890855341,
    "longitude": 17.7954576035211
  },
  {
    "name": "SPW (all) Mostarsko blato",
    "latitude": 43.3282325005729,
    "longitude": 17.708830895745
  },
  {
    "name": "SP (SW-W) Hum_Mostar",
    "latitude": 43.3215169393247,
    "longitude": 17.8074294791111
  },
  {
    "name": "SP (S-SW, N-NE) Ljubuski_Radisici",
    "latitude": 43.2173227238767,
    "longitude": 17.5281247467074
  },
  {
    "name": "SP (S-SW) Ljubuski",
    "latitude": 43.2149186145633,
    "longitude": 17.5356413895468
  },
  {
    "name": "SP (SW-SSW) Berkovici",
    "latitude": 43.1123018514997,
    "longitude": 18.1781228391716
  },
  {
    "name": "SP (SW) Gljiva_Leotar",
    "latitude": 42.7351630777319,
    "longitude": 18.3738989239464
  },
  {
    "name": "SP (S-SSW) Hercegovacka gudura",
    "latitude": 42.7266249241291,
    "longitude": 18.2963598440933
  },
  {
    "name": "LP Gljiva",
    "latitude": 42.7158,
    "longitude": 18.3499
  },
  {
    "name": "LP Popina",
    "latitude": 44.1229,
    "longitude": 26.938
  },
  {
    "name": "SP (N) Popina",
    "latitude": 44.1154,
    "longitude": 26.939
  },
  {
    "name": "SPW (NE, SW) Letishte Shtraklevo (Ruse)_летище Щръклево",
    "latitude": 43.6924739455062,
    "longitude": 26.0518333778146
  },
  {
    "name": "SPW (NNW, SSE) Dobrich airport",
    "latitude": 43.6064,
    "longitude": 27.8382
  },
  {
    "name": "SP (NE-E) Miladinovci",
    "latitude": 43.602346746216,
    "longitude": 27.6112200720879
  },
  {
    "name": "Dyrmanci_Bukovets",
    "latitude": 43.5918257468842,
    "longitude": 22.9701185626311
  },
  {
    "name": "SP (WNW-SW) Kostandenets_Kostandenec_Костанденец: ЮЗ",
    "latitude": 43.5608,
    "longitude": 26.2157
  },
  {
    "name": "SP (S) Kostandenets_Kostandenec",
    "latitude": 43.560164578038,
    "longitude": 26.217748480948
  },
  {
    "name": "LP Kostandenets",
    "latitude": 43.557684171463,
    "longitude": 26.2078721378228
  },
  {
    "name": "SPW (WNW, ESE) Gabrovnitsa Airport",
    "latitude": 43.5448267102799,
    "longitude": 23.2709463140944
  },
  {
    "name": "SP (SSE) Chilnov",
    "latitude": 43.5385307630008,
    "longitude": 25.9080807218007
  },
  {
    "name": "SP (S-SSW) Katselovo",
    "latitude": 43.5324850280894,
    "longitude": 26.0461609872032
  },
  {
    "name": "SP (E) Odrintsii (Odrinci)",
    "latitude": 43.5186335751888,
    "longitude": 27.70096155704
  },
  {
    "name": "LP Botevo",
    "latitude": 43.4395,
    "longitude": 27.7116
  },
  {
    "name": "SP (W-SW) Botevo",
    "latitude": 43.4362,
    "longitude": 27.7167
  },
  {
    "name": "LP Pastrina NW",
    "latitude": 43.4322,
    "longitude": 23.2833
  },
  {
    "name": "SP (W-WNW) Montana_Pastrina (Pustrina)_Пъстрина: СЗ",
    "latitude": 43.4264657221818,
    "longitude": 23.3033591594606
  },
  {
    "name": "SP (N-NNE, SE) Pastrina_Pustrina_Dolna Verenitsa_Verenishko Bardo (Burdo)",
    "latitude": 43.4232804735006,
    "longitude": 23.1502608898244
  },
  {
    "name": "SP (SW) Verenishko Bardo",
    "latitude": 43.4222166666667,
    "longitude": 23.1450833333333
  },
  {
    "name": "LP Vereinshko Bardo",
    "latitude": 43.4193166666667,
    "longitude": 23.1633
  },
  {
    "name": "SP (W-SW) Obrochishte_Оброчище: ЮЗ",
    "latitude": 43.4150076633621,
    "longitude": 28.0633639453755
  },
  {
    "name": "SPK (S) Kavarna_Topola_Globul Spot_Топола: Ю",
    "latitude": 43.412248444434,
    "longitude": 28.2568098701251
  },
  {
    "name": "SP (SW) Stoyan Mihalyovski",
    "latitude": 43.4109989301927,
    "longitude": 27.2054663663987
  },
  {
    "name": "LP Topola",
    "latitude": 43.4084,
    "longitude": 28.2549
  },
  {
    "name": "SP (SE-SSW) Palmartsa_Gary's Hill",
    "latitude": 43.4003793570395,
    "longitude": 26.1379124247675
  },
  {
    "name": "SPK (SE-ESE) Albena_Албена: ЮИ-И",
    "latitude": 43.3779671620671,
    "longitude": 28.0927218324335
  },
  {
    "name": "LP Albena",
    "latitude": 43.3754821979931,
    "longitude": 28.091604435011
  },
  {
    "name": "SP (S-SW) Stanata_Нови Пазар-Стана",
    "latitude": 43.372149657053,
    "longitude": 27.237417594602
  },
  {
    "name": "SP (SE-E) Rogachevo_Рогачево: И",
    "latitude": 43.3657756905712,
    "longitude": 28.0155928271147
  },
  {
    "name": "SP (SW) Polski Trumbesh_Каранци",
    "latitude": 43.3626254909157,
    "longitude": 25.6781333036583
  },
  {
    "name": "SP (SW-SE) Mogilata_Могилата",
    "latitude": 43.3548358390457,
    "longitude": 26.971764222356
  },
  {
    "name": "SP (SSW) Veslec",
    "latitude": 43.354817444066,
    "longitude": 23.7411033725524
  },
  {
    "name": "SP (W) Klimentovo",
    "latitude": 43.354193071154,
    "longitude": 25.6178417228321
  },
  {
    "name": "SPK (E-SE) Kranevo",
    "latitude": 43.3244142754308,
    "longitude": 28.0630115508189
  },
  {
    "name": "SP (N-NNE) Gradishte",
    "latitude": 43.3181659321,
    "longitude": 26.835423568101
  },
  {
    "name": "SP (WNW) Suvorovo",
    "latitude": 43.3036228039211,
    "longitude": 27.6312251938012
  },
  {
    "name": "SP (S-SW) Sevsha South",
    "latitude": 43.2921647255577,
    "longitude": 27.309593921385
  },
  {
    "name": "SP (NW-W) Madara_Кочово: С-СЗ, З",
    "latitude": 43.2820924378628,
    "longitude": 27.1201237998025
  },
  {
    "name": "LP Madara",
    "latitude": 43.2778462997883,
    "longitude": 27.1093189853506
  },
  {
    "name": "SP (SW-SSW) Kipra",
    "latitude": 43.2683361797734,
    "longitude": 27.6215153806076
  },
  {
    "name": "SP (NE-E) Nevcha_Nevsha_Невша: СИ",
    "latitude": 43.2634460347571,
    "longitude": 27.2838242811901
  },
  {
    "name": "SP (N-NE) Shumen N_Шумен: С",
    "latitude": 43.2626179660502,
    "longitude": 26.9210643001586
  },
  {
    "name": "SP (NE-ESE) Shumen_Шумен",
    "latitude": 43.2583633856225,
    "longitude": 26.9266070442657
  },
  {
    "name": "LP Shumen 1",
    "latitude": 43.2574647728491,
    "longitude": 26.9402367527658
  },
  {
    "name": "SP (E) Reselets",
    "latitude": 43.252,
    "longitude": 24.031
  },
  {
    "name": "LP Shumen 2",
    "latitude": 43.2517427277515,
    "longitude": 26.9357414316822
  },
  {
    "name": "SP (S-SE) Shumen S_Шумен",
    "latitude": 43.2513705193827,
    "longitude": 26.9254907568823
  },
  {
    "name": "LP Venchan",
    "latitude": 43.2446575432489,
    "longitude": 27.3826593147958
  },
  {
    "name": "SP (NE-NNE) Venchan",
    "latitude": 43.2427808663345,
    "longitude": 27.374898036027
  },
  {
    "name": "SP (S-SW) Lesicheri",
    "latitude": 43.2313,
    "longitude": 25.4255
  },
  {
    "name": "SP (S) Troica_Троица",
    "latitude": 43.2231739878009,
    "longitude": 26.8744483890878
  },
  {
    "name": "LP Troica",
    "latitude": 43.2179542225931,
    "longitude": 26.8756342458294
  },
  {
    "name": "LP Devnia",
    "latitude": 43.2164,
    "longitude": 27.5542
  },
  {
    "name": "SP (SSW-S) Kalen_Кален",
    "latitude": 43.2138577053486,
    "longitude": 23.8292979734545
  },
  {
    "name": "SP (NE) Devnia (Devnya)_Девня",
    "latitude": 43.2129794727088,
    "longitude": 27.5487164367801
  },
  {
    "name": "SPK (SE) Varna/Horizont_Варна/Хоризонт: Ю-ЮИ",
    "latitude": 43.2098341991124,
    "longitude": 27.9386192695612
  },
  {
    "name": "LP VArna",
    "latitude": 43.2091802724942,
    "longitude": 27.9400055752796
  },
  {
    "name": "SP (E-SE) Provadia_Provadiya",
    "latitude": 43.2082335845736,
    "longitude": 27.4156617784301
  },
  {
    "name": "SP (SE-S) Ledenica_Carkvishte_alternative",
    "latitude": 43.1964353690188,
    "longitude": 23.5004358925118
  },
  {
    "name": "SP (SW-SE) Kunino",
    "latitude": 43.19,
    "longitude": 24.008
  },
  {
    "name": "SP (E) Kom_Berkovitsa",
    "latitude": 43.1800813203321,
    "longitude": 23.0944293720795
  },
  {
    "name": "SP (SW) Ledenica_Carkvishte",
    "latitude": 43.1795346188316,
    "longitude": 23.4706831725383
  },
  {
    "name": "LP Okolchitza (Okolchitsa)",
    "latitude": 43.1723910168456,
    "longitude": 23.6094620703438
  },
  {
    "name": "SPK (N-NNE) Galata",
    "latitude": 43.1722632838032,
    "longitude": 27.9265570918008
  },
  {
    "name": "SP (NNW-W) Razdelna_Petricha_Разделна",
    "latitude": 43.1631459572877,
    "longitude": 27.6443302727955
  },
  {
    "name": "SP (NE-E) Vratza (Vraca)_Okloltchitza (Okolchica)_Околчица: СИ-И",
    "latitude": 43.1524994184359,
    "longitude": 23.584846669497
  },
  {
    "name": "SP-HG (NE-E) Vratza (Vraca)_Okloltchitza (Okolchica)_Околчица",
    "latitude": 43.1522486641461,
    "longitude": 23.5862434470085
  },
  {
    "name": "SP (S) Mount Parshevitsa_връх Пършевица",
    "latitude": 43.1355567639001,
    "longitude": 23.4340253955624
  },
  {
    "name": "SP (N) The rock_Obreshkovs_Камъка",
    "latitude": 43.1239444927822,
    "longitude": 25.6583050578318
  },
  {
    "name": "SPK (E-ESE) Chernomorec_Черноморец",
    "latitude": 43.1238189338738,
    "longitude": 27.9288088874712
  },
  {
    "name": "LP Darmantsi",
    "latitude": 43.1237135885298,
    "longitude": 23.7155228946977
  },
  {
    "name": "SP (NW-W) Dyrmanci_Darmantsi_Дърманци",
    "latitude": 43.1181,
    "longitude": 23.7186
  },
  {
    "name": "SP (E) Bozvelysko (Bozveliysko)",
    "latitude": 43.0965581327826,
    "longitude": 27.4473351925126
  },
  {
    "name": "Weliko Tarnowo Antennas",
    "latitude": 43.0925989628361,
    "longitude": 25.6323535101827
  },
  {
    "name": "SP (E-SE) Liaskovec (Lyaskovets)_Лясковец",
    "latitude": 43.0925947192727,
    "longitude": 25.7062218678963
  },
  {
    "name": "SP (SW-S) Krushevo_Крушево: Ю",
    "latitude": 43.0511,
    "longitude": 25.1782
  },
  {
    "name": "SP (E-SE) Lukovit_Dragonitsa_Ябланица",
    "latitude": 43.0355329202701,
    "longitude": 24.0562283549919
  },
  {
    "name": "LP Yablanitsa",
    "latitude": 43.0319858601567,
    "longitude": 24.0732331264259
  },
  {
    "name": "LP Partizani",
    "latitude": 43.0048,
    "longitude": 27.1997
  },
  {
    "name": "SP (NE-NW) Partizani_Партизани: С-СЗ",
    "latitude": 42.9886039057297,
    "longitude": 27.2091524881073
  },
  {
    "name": "SP (NW-N) Skalsko_Скалско: С-СЗ",
    "latitude": 42.9651114674739,
    "longitude": 25.3785805214296
  },
  {
    "name": "Trynak_Tranak",
    "latitude": 42.9515,
    "longitude": 27.1718
  },
  {
    "name": "SP (SE-SW) Chepan_ЧЕПАН",
    "latitude": 42.9441858341657,
    "longitude": 22.9743165308444
  },
  {
    "name": "SP (W, SE, E) Tetewen_Cherven_вр.Червен: ЮИ-Ю-З",
    "latitude": 42.9363962561481,
    "longitude": 24.2888805903698
  },
  {
    "name": "SP (SSW) Karavelyovo_Каравельово",
    "latitude": 42.9360690962803,
    "longitude": 27.1455572825201
  },
  {
    "name": "SP (S-SSE) Golica (Golitsa)",
    "latitude": 42.9326127942139,
    "longitude": 27.5694888171085
  },
  {
    "name": "SP (NE-ENE) Razliv_Разлив",
    "latitude": 42.9318872236151,
    "longitude": 23.8944370655652
  },
  {
    "name": "LP Teteven intermediate",
    "latitude": 42.9250226062507,
    "longitude": 24.2777603093402
  },
  {
    "name": "SP (NW) Kotel_Urushkite Skali",
    "latitude": 42.9239890413338,
    "longitude": 26.4597601271774
  },
  {
    "name": "LP Teteven",
    "latitude": 42.9164949426946,
    "longitude": 24.2573132253531
  },
  {
    "name": "SP (N-NNW) Kotel 2",
    "latitude": 42.9087397768964,
    "longitude": 26.4106593510243
  },
  {
    "name": "SP (S-SSE) s. Kamchia",
    "latitude": 42.8997921512594,
    "longitude": 26.9946176108813
  },
  {
    "name": "LP Kamchia",
    "latitude": 42.8817548324356,
    "longitude": 27.0039207061668
  },
  {
    "name": "SP (E) Ostrets_Острец",
    "latitude": 42.8797216256576,
    "longitude": 25.8912688505466
  },
  {
    "name": "SP (N-NE) Beklemeto (North)",
    "latitude": 42.7736,
    "longitude": 24.6309
  },
  {
    "name": "SP (S-SW) Svishti Plaz_вр. Свищи Плаз",
    "latitude": 42.7647026561218,
    "longitude": 24.1125456724581
  },
  {
    "name": "SP (W-NW) Bekleme NW_Сиврия: СЗ",
    "latitude": 42.761344223368,
    "longitude": 24.6248464494189
  },
  {
    "name": "SP (SW-SE) Topolica (Topolitsa_Topolitza_Тополица)",
    "latitude": 42.7503942586506,
    "longitude": 27.1371650841723
  },
  {
    "name": "SP (SW-SE) Shipka_top",
    "latitude": 42.7478492794006,
    "longitude": 25.3229621709269
  },
  {
    "name": "SP (SW-SE) Beklemoto (Bekleme)_Christo Danowo_Беклеме: И-Ю-З",
    "latitude": 42.7420534865847,
    "longitude": 24.6125879307805
  },
  {
    "name": "SPK (E-ENE) Irakli_Иракли - ИСИ",
    "latitude": 42.7419534571697,
    "longitude": 27.8895473661795
  },
  {
    "name": "LP Topolica",
    "latitude": 42.738559514623,
    "longitude": 27.1344841554917
  },
  {
    "name": "LP Irakli",
    "latitude": 42.7385,
    "longitude": 27.892078
  },
  {
    "name": "SP (SE-SW) Shipka_Шипка: Ю",
    "latitude": 42.7365256827736,
    "longitude": 25.3214016884077
  },
  {
    "name": "SP (SW) Stargel",
    "latitude": 42.7363209802789,
    "longitude": 23.8904500964397
  },
  {
    "name": "SP (S-SE) Zlatitca_Zlatitsa_Златица",
    "latitude": 42.7326053455142,
    "longitude": 24.0911442538489
  },
  {
    "name": "SP (S) Sliven_Balgarka",
    "latitude": 42.7324357087833,
    "longitude": 26.324262743318
  },
  {
    "name": "SP (SW) Vortex_Въртопа: ЮЮЗ",
    "latitude": 42.7281603160882,
    "longitude": 24.3599029607739
  },
  {
    "name": "SP (E-S) Korudzha_Коруджа",
    "latitude": 42.7230656669984,
    "longitude": 25.2578237653856
  },
  {
    "name": "LP Zlatitsa",
    "latitude": 42.7223,
    "longitude": 24.1137
  },
  {
    "name": "LP Beklemeoto S_Hristo Danovo",
    "latitude": 42.7198,
    "longitude": 24.6102
  },
  {
    "name": "SP (SE-SW) Chakalitsa_Чакалица: И-Ю-З",
    "latitude": 42.7190642821356,
    "longitude": 25.9543088818203
  },
  {
    "name": "SP (SW-W) Sliven_Karandila",
    "latitude": 42.7150632093315,
    "longitude": 26.3615542139926
  },
  {
    "name": "SP (E-SE) Sliven_Karandila alternative",
    "latitude": 42.714935099573,
    "longitude": 26.3755457453492
  },
  {
    "name": "SP (E-ENE) Rasnik_Расник",
    "latitude": 42.7146902012158,
    "longitude": 22.9864006853365
  },
  {
    "name": "SP (SW-SE) Peak Botwv_връх Ботев-Takeoff",
    "latitude": 42.7145448072522,
    "longitude": 24.9189270100374
  },
  {
    "name": "SP (SW-WSW) Buzludzha (Tonzos)_Тонзос: Ю-ЮЗ",
    "latitude": 42.7122958731372,
    "longitude": 25.3842558371068
  },
  {
    "name": "SP (SSW-E) Rasnik_Расник",
    "latitude": 42.7101133854172,
    "longitude": 22.9873256747288
  },
  {
    "name": "LP Rasnik",
    "latitude": 42.7072914858665,
    "longitude": 22.9911346548174
  },
  {
    "name": "SP (SSW-SW) Buzludja (Tonzos)_Бузлуджа (Тонзос)_lower",
    "latitude": 42.7041277068068,
    "longitude": 25.3801454030725
  },
  {
    "name": "SP (S-SE) Kalofer_Panitsite_Паниците",
    "latitude": 42.6962517905964,
    "longitude": 24.9814867686528
  },
  {
    "name": "SP (W-SW, E-SE) Sliven_Sinilka_Синилка: З",
    "latitude": 42.6959764972918,
    "longitude": 26.4390268510329
  },
  {
    "name": "LP Tonzos",
    "latitude": 42.6907,
    "longitude": 25.3762
  },
  {
    "name": "UH (W-SSW) Gorna Malina SW site 1",
    "latitude": 42.6903,
    "longitude": 23.6902
  },
  {
    "name": "Info Sopot",
    "latitude": 42.689278002357,
    "longitude": 24.750204846255
  },
  {
    "name": "SP (ESE-WSW) Sopot_Stara Planina_Сопот",
    "latitude": 42.6876446335118,
    "longitude": 24.7502195315199
  },
  {
    "name": "LP Medovo",
    "latitude": 42.6875,
    "longitude": 27.5705
  },
  {
    "name": "SP (NNE-NE) Medovo_Медово: СИ",
    "latitude": 42.6832407645238,
    "longitude": 27.5723294597991
  },
  {
    "name": "SP (S) Sliven_Sinilka_Синилка: Ю (low)",
    "latitude": 42.6825799702951,
    "longitude": 26.436447243818
  },
  {
    "name": "SP (SE) Sarayar_Саръяр",
    "latitude": 42.6824844353512,
    "longitude": 25.4581259207818
  },
  {
    "name": "SP (WNW) Pirdop_Пирдоп",
    "latitude": 42.6818020063633,
    "longitude": 24.1571461077091
  },
  {
    "name": "LP Pevtsite",
    "latitude": 42.6803818832296,
    "longitude": 24.6640590262758
  },
  {
    "name": "LP Gorna Malina SW site 1",
    "latitude": 42.6802,
    "longitude": 23.6826
  },
  {
    "name": "SP (SSE-SW) Ravni vrah",
    "latitude": 42.6753137823071,
    "longitude": 24.9057000037956
  },
  {
    "name": "SP (SE-SW) Bardoto_Сопот/Бърдото: И-Ю-З",
    "latitude": 42.6744673202263,
    "longitude": 24.7626353814386
  },
  {
    "name": "LP Sinilka",
    "latitude": 42.6726640866394,
    "longitude": 26.4342597231972
  },
  {
    "name": "SP (SW-SE) Sopot_Govedarnata_Сопот/Говедарната: ЮИ-Ю-З",
    "latitude": 42.6682157704754,
    "longitude": 24.7744430778709
  },
  {
    "name": "SP (E-ESE) Biberna_Kableshkovo_Биберна/Каблешково: ИЮИ",
    "latitude": 42.6672982612479,
    "longitude": 27.5798161243895
  },
  {
    "name": "LP Sopot 1",
    "latitude": 42.6640812362189,
    "longitude": 24.7478095890999
  },
  {
    "name": "SP (SW-S) Ravnec_Хижа Ражнец",
    "latitude": 42.6634582285023,
    "longitude": 24.8317607031528
  },
  {
    "name": "LP Panitsite",
    "latitude": 42.6573798049672,
    "longitude": 24.9833579219523
  },
  {
    "name": "Sopot_SkyView Sopot Accomodation etc",
    "latitude": 42.6569911374115,
    "longitude": 24.7604834128755
  },
  {
    "name": "LP Kopitoto_Vitosha",
    "latitude": 42.6560114659176,
    "longitude": 23.2588970576691
  },
  {
    "name": "LP Sofia Kopitoto 1",
    "latitude": 42.6506566713117,
    "longitude": 23.2353383311637
  },
  {
    "name": "SP (N) Karnobat_Карнобат",
    "latitude": 42.6449897033738,
    "longitude": 27.0099966884484
  },
  {
    "name": "SP (SE) Tritr Sestri_Трите сестри",
    "latitude": 42.6424196,
    "longitude": 27.3938083
  },
  {
    "name": "SP (NW) Sofia_Kopitoto_Копитото",
    "latitude": 42.637276692425,
    "longitude": 23.2420059297919
  },
  {
    "name": "SP (WSW-SW) Banewo_Банево",
    "latitude": 42.635632,
    "longitude": 27.4064898
  },
  {
    "name": "SP (NW) Vitanovtsi_Vitanovci_Витановци: СЗ",
    "latitude": 42.6352,
    "longitude": 22.9853
  },
  {
    "name": "LP Kominite",
    "latitude": 42.6330418093767,
    "longitude": 23.3225128421306
  },
  {
    "name": "SP (NW) Balgarovo_Българово",
    "latitude": 42.6295541,
    "longitude": 27.2993302
  },
  {
    "name": "SP (NE-E) Sofia_Goli Vrah_Kominite_Vitosha_Витоша/Комините: СИ",
    "latitude": 42.6005317870832,
    "longitude": 23.284201745562
  },
  {
    "name": "UH (all) Dæbene",
    "latitude": 42.5862691004921,
    "longitude": 24.7354872320983
  },
  {
    "name": "SP (WNW, NE) Voynagovo_Tzarkvishte_Войнягово/Църквище",
    "latitude": 42.5796811227939,
    "longitude": 24.7164086539721
  },
  {
    "name": "SPW (WNW) Marino Pole_Марино поле",
    "latitude": 42.5795,
    "longitude": 24.8693
  },
  {
    "name": "SP (E) Rezniovete_Резньовете - Запад",
    "latitude": 42.5721868664673,
    "longitude": 23.2899100167197
  },
  {
    "name": "SP (W-NW) Rezniovete_Резньовете - Запад",
    "latitude": 42.5716371327599,
    "longitude": 23.2868143435923
  },
  {
    "name": "SP (NNE) Kapral_Капраля",
    "latitude": 42.5707231447592,
    "longitude": 23.3548948967119
  },
  {
    "name": "SPK (SE-ESE) Solnitsite_Солниците",
    "latitude": 42.553507,
    "longitude": 27.5092935
  },
  {
    "name": "SP (NE) Kamen_Panaretovo_Панаретовци",
    "latitude": 42.5495508521404,
    "longitude": 26.3080378965859
  },
  {
    "name": "SP (NE) Panaretovtsi_Glufishevo_Глуфишево",
    "latitude": 42.5321126866381,
    "longitude": 26.3229904012869
  },
  {
    "name": "SP (S-SW) Hisar_Хисар: Ю",
    "latitude": 42.5223441780423,
    "longitude": 24.7333519471413
  },
  {
    "name": "SPK (E) Burgas-Sea Garden_Бургас-Морската градина",
    "latitude": 42.4963470943489,
    "longitude": 27.4831245819158
  },
  {
    "name": "LP Stefanovo",
    "latitude": 42.4823,
    "longitude": 23.0346
  },
  {
    "name": "SP (NNE-NW) Stefanovo",
    "latitude": 42.4767979256293,
    "longitude": 23.0330960027608
  },
  {
    "name": "SP (WNW-NW) Schiloto_Шилото",
    "latitude": 42.457017,
    "longitude": 27.379017
  },
  {
    "name": "SPK (ENE-NE) Kraymorie_Крайморие",
    "latitude": 42.45337,
    "longitude": 27.484467
  },
  {
    "name": "SP (N-NNW) Bakadjik_Бакаджика",
    "latitude": 42.4512348072737,
    "longitude": 26.6459255972508
  },
  {
    "name": "SP (SW-SSW) Bakadjik_Бакаджика",
    "latitude": 42.4459232297235,
    "longitude": 26.6452118864353
  },
  {
    "name": "SP (W) Продановски рид",
    "latitude": 42.3764,
    "longitude": 23.5213
  },
  {
    "name": "UH (W-SE, NE) Дъбова глава",
    "latitude": 42.3454,
    "longitude": 23.5906
  },
  {
    "name": "SP (W-SSW) Konyavo_Koniavo_Коняво: И-Ю-З",
    "latitude": 42.3448,
    "longitude": 22.8378
  },
  {
    "name": "SP (S-SW) Konyavo alternative",
    "latitude": 42.342,
    "longitude": 22.84
  },
  {
    "name": "SP (SW) Veselie (Wesselie)_Веселие",
    "latitude": 42.3294143,
    "longitude": 27.6350269
  },
  {
    "name": "LP Konyavo 1",
    "latitude": 42.3216845231018,
    "longitude": 22.81570331561
  },
  {
    "name": "LP Konyavo 2",
    "latitude": 42.3127694588905,
    "longitude": 22.8188232979919
  },
  {
    "name": "SPW (WSW, ENE) Dupnitsa Airport_Stanke Dimitrov_летище Крайници",
    "latitude": 42.3112149678894,
    "longitude": 23.2458164398116
  },
  {
    "name": "LP Bekyaro ski run",
    "latitude": 42.2979,
    "longitude": 23.2785
  },
  {
    "name": "SP (NNW) Rido",
    "latitude": 42.282,
    "longitude": 23.2007
  },
  {
    "name": "LP Iglika",
    "latitude": 42.2719,
    "longitude": 22.6636
  },
  {
    "name": "LP Beli Iskar",
    "latitude": 42.266423887858,
    "longitude": 23.5369822935488
  },
  {
    "name": "SP (NW) Bekyaro ski run",
    "latitude": 42.2661,
    "longitude": 23.2964
  },
  {
    "name": "SP (S-SE) Sveti Iliya_Свети  Илия  ЮИ-И-ю-юз",
    "latitude": 42.263412984892,
    "longitude": 23.4520915897016
  },
  {
    "name": "LP Borovec_Borovets",
    "latitude": 42.2632510940448,
    "longitude": 23.606233343859
  },
  {
    "name": "LP Govedartsi",
    "latitude": 42.2612735494787,
    "longitude": 23.4734705981304
  },
  {
    "name": "SP (NW, NE) Borovec - Sitniakovo 2",
    "latitude": 42.2562434493959,
    "longitude": 23.6065404225534
  },
  {
    "name": "LP Govedarnika_Bej Bunar",
    "latitude": 42.245,
    "longitude": 23.1435
  },
  {
    "name": "SP (NNW-NW) Iglika_Иглика_Osogovo_Kyustendil (Kjustendil)",
    "latitude": 42.2417854259394,
    "longitude": 22.6562133153169
  },
  {
    "name": "SP (N, NE) Borovec - Sitniakovo",
    "latitude": 42.2394030115684,
    "longitude": 23.5876796553417
  },
  {
    "name": "SP (N) Yastrebetc_Ястребец Долния старт",
    "latitude": 42.2367769904104,
    "longitude": 23.5877752765322
  },
  {
    "name": "SP (NE-E) Yastrebec_Ястребец",
    "latitude": 42.2294754125263,
    "longitude": 23.5848320300596
  },
  {
    "name": "SP (NW-WNW) Yastrebec_Ястребец",
    "latitude": 42.2274363595155,
    "longitude": 23.5814534146215
  },
  {
    "name": "SP (NE) Gledkata",
    "latitude": 42.2232444182014,
    "longitude": 23.1394549618932
  },
  {
    "name": "SP (W-SW) Govedarnika",
    "latitude": 42.2216861340737,
    "longitude": 23.1627590941991
  },
  {
    "name": "SP (E-ENE) Rila Mountains_7 lakes_Седемте езера",
    "latitude": 42.2168469268434,
    "longitude": 23.3158265108031
  },
  {
    "name": "SP (N-NNW) Cherni Vrah",
    "latitude": 42.2154,
    "longitude": 23.2335
  },
  {
    "name": "SP (E) Borovec_Markudjik 2_Маркуджик 2: З-С-СИ",
    "latitude": 42.2136225719,
    "longitude": 23.5768179816148
  },
  {
    "name": "SP (W) Borovec_Markudjik 1_Маркуджик 1: З-С-СИ",
    "latitude": 42.2132121099479,
    "longitude": 23.5760961152773
  },
  {
    "name": "SP (NW-W) Tash Tepe_Таш Тепе",
    "latitude": 42.2088637853358,
    "longitude": 22.5023576552984
  },
  {
    "name": "SP (NW) Ръждавица  С-СЗ",
    "latitude": 42.2056756357823,
    "longitude": 23.3948385637576
  },
  {
    "name": "SP (NW-NNW) Mechit_Мечит",
    "latitude": 42.2026403582923,
    "longitude": 23.4708988353294
  },
  {
    "name": "SP (SSW-N) Bej Bunar_Жълт кладенец: с-СЗ-з-юз-ю",
    "latitude": 42.1944804110801,
    "longitude": 23.1456354631888
  },
  {
    "name": "SP (N-NNE) Rila Mountains_7 lakes_N launch",
    "latitude": 42.194157488274,
    "longitude": 23.3121839685768
  },
  {
    "name": "SP (SE, N) Belmeken",
    "latitude": 42.1789771758871,
    "longitude": 23.7730722513671
  },
  {
    "name": "SP (SSW-SSE) Kalin_Rila Mountain_Калин - ЮЗ",
    "latitude": 42.1728675724818,
    "longitude": 23.2350556057621
  },
  {
    "name": "SP (S-SE) Kalin_Калин",
    "latitude": 42.1709075029188,
    "longitude": 23.2602327148423
  },
  {
    "name": "SP (S-SE) Kalin_7 lakes of Rila_Калин: ЮИ-Ю-ЮЗ",
    "latitude": 42.1680243469789,
    "longitude": 23.2485491647281
  },
  {
    "name": "SP (SW) Robovitsa",
    "latitude": 42.161682438834,
    "longitude": 23.1606771360738
  },
  {
    "name": "LP Krusta",
    "latitude": 42.1602,
    "longitude": 22.9948
  },
  {
    "name": "SP (NNE-NE, SSW-SW) Rouen_Ruen_Boboshevo",
    "latitude": 42.1595,
    "longitude": 22.9648
  },
  {
    "name": "SP (NE) Krusta",
    "latitude": 42.1566,
    "longitude": 22.9893
  },
  {
    "name": "LP Rouen_Ruen_Boboshevo",
    "latitude": 42.1443,
    "longitude": 23.0084
  },
  {
    "name": "SP (SE) Marina Vapa_Марина Вапа: S-SE",
    "latitude": 42.1345566351614,
    "longitude": 23.6479875511016
  },
  {
    "name": "SP (SE) Ovcharets_Овчарец: E-S-W",
    "latitude": 42.1330507880671,
    "longitude": 23.5912803659128
  },
  {
    "name": "SP (S-SSW) Milevi Skali",
    "latitude": 42.1256009193355,
    "longitude": 24.059483963634
  },
  {
    "name": "LP Kalin_Rila Mountain_Robovitsa",
    "latitude": 42.124,
    "longitude": 23.1261
  },
  {
    "name": "SP (NE) Delfin_к-г Делфин",
    "latitude": 42.1072174,
    "longitude": 27.9184699
  },
  {
    "name": "SP (NE) Водна кула",
    "latitude": 42.1047918285786,
    "longitude": 24.2787592914823
  },
  {
    "name": "SP (SW-NNW) Isperihovo_Novo Selo_Ново Село: И, СЗ-З",
    "latitude": 42.090475133192,
    "longitude": 24.4654525150805
  },
  {
    "name": "LP Brestovitsa_Stamboliyski",
    "latitude": 42.0742531250515,
    "longitude": 24.5810088610024
  },
  {
    "name": "SP (NW-WNW) Stamboliyski_Brestovica (Brestovitsa)_Брестовица: СЗ",
    "latitude": 42.0628,
    "longitude": 24.5889
  },
  {
    "name": "LP Markowo",
    "latitude": 42.0626631255774,
    "longitude": 24.7192522538218
  },
  {
    "name": "SP (NE-NW) Kaloyan/Markovo_Калоян/Марково: СЗ-С",
    "latitude": 42.050136968199,
    "longitude": 24.7095566281499
  },
  {
    "name": "SP (NE) St. Iliya_Св. Илия - СИ",
    "latitude": 42.0315612760197,
    "longitude": 24.4463891257561
  },
  {
    "name": "SP (N) Skobelevo_Zhrebichko Orlin_Скобелево-север",
    "latitude": 42.0087341993259,
    "longitude": 24.5469743686284
  },
  {
    "name": "SP (NNE) sv Kirik-Asenovgrad",
    "latitude": 41.9990970066255,
    "longitude": 24.8445883732488
  },
  {
    "name": "LP Mosthanets",
    "latitude": 41.9781232806815,
    "longitude": 23.0697267977289
  },
  {
    "name": "SP (N-NNE) Mosthanets_Moshtanets",
    "latitude": 41.9723,
    "longitude": 23.07
  },
  {
    "name": "SP (NW) Tserovo_Blagoevgrad",
    "latitude": 41.9613592589959,
    "longitude": 23.1526609060789
  },
  {
    "name": "LP Dobrostan",
    "latitude": 41.9264296760262,
    "longitude": 24.962685617424
  },
  {
    "name": "SP (NE-SE) Dobrostan_Добростан: СИ-И",
    "latitude": 41.9095047385913,
    "longitude": 24.9312009314008
  },
  {
    "name": "LP Brejani",
    "latitude": 41.8497844280187,
    "longitude": 23.1410638999134
  },
  {
    "name": "SP (NNW) Brejani",
    "latitude": 41.8483530858539,
    "longitude": 23.1683311370183
  },
  {
    "name": "SP (NW) Calin Valog_Чалин валог СЗ",
    "latitude": 41.8004051509533,
    "longitude": 23.4647674086863
  },
  {
    "name": "LP Todorka",
    "latitude": 41.7796977090323,
    "longitude": 23.4378428331351
  },
  {
    "name": "Stupid_Pirin",
    "latitude": 41.7645853016639,
    "longitude": 23.4127341964454
  },
  {
    "name": "SP (N-E) Bansko_Todorka_Тодорка",
    "latitude": 41.7588033152255,
    "longitude": 23.4361895408768
  },
  {
    "name": "LP Bezbog",
    "latitude": 41.7585,
    "longitude": 23.5448
  },
  {
    "name": "SP (NE) Bezbog_Безбог",
    "latitude": 41.7451760324458,
    "longitude": 23.5326199115566
  },
  {
    "name": "SP (NE-E) Bezbog Summit_връх Безбог",
    "latitude": 41.7310248790917,
    "longitude": 23.5124258319361
  },
  {
    "name": "SP (S) Илинденци: ЮЗ",
    "latitude": 41.7122248685144,
    "longitude": 23.3185646719498
  },
  {
    "name": "SP (SW-S) Ploski",
    "latitude": 41.6431239315229,
    "longitude": 23.2562903422985
  },
  {
    "name": "SP (NE) Pamporowo_връх Снежанка",
    "latitude": 41.6389142318494,
    "longitude": 24.6838268810791
  },
  {
    "name": "SP (ESE-NE) Orelyak_Orelek",
    "latitude": 41.571,
    "longitude": 23.614
  },
  {
    "name": "SP (NNE) Musomishta",
    "latitude": 41.5448569647617,
    "longitude": 23.7489160400543
  },
  {
    "name": "SP (NNW) Slavyanka_Shabran peak_вр.Шабран",
    "latitude": 41.3800156117432,
    "longitude": 23.6032098581469
  },
  {
    "name": "SP (NW-NNE) Belasitsa_Конгура: З, И",
    "latitude": 41.3301020287786,
    "longitude": 23.1735353094088
  },
  {
    "name": "SPK (NW-NNW) Gamle Skagen (Old Skagen)",
    "latitude": 57.7264249334875,
    "longitude": 10.516850900598
  },
  {
    "name": "SPK (SE) Skagen_Damsted Klit",
    "latitude": 57.70555556,
    "longitude": 10.55416667
  },
  {
    "name": "SPK (NW-NNW) Skiveren",
    "latitude": 57.6258533311156,
    "longitude": 10.2931451800044
  },
  {
    "name": "SPK (NW) Hirtshals",
    "latitude": 57.5836581504748,
    "longitude": 9.93696222422572
  },
  {
    "name": "SPK (NW) Lönstrup (Lønstrup)_Löntorp",
    "latitude": 57.4813914453735,
    "longitude": 9.80366801619719
  },
  {
    "name": "SPK (NW) Lönstrup (Lønstrup)",
    "latitude": 57.4774433447906,
    "longitude": 9.79740911261644
  },
  {
    "name": "SPK (WNW) Lönstrup (Lønstrup) 2",
    "latitude": 57.4753415179366,
    "longitude": 9.79472355636262
  },
  {
    "name": "SPW (WNW) Lökken (Løkken)_Ruberg Knude",
    "latitude": 57.4496124931872,
    "longitude": 9.77468795008884
  },
  {
    "name": "SPK (WNW) Lökken (Løkken)_Nörre Rubjerg 2",
    "latitude": 57.4379824347305,
    "longitude": 9.76569423538362
  },
  {
    "name": "SPK (WNW-NW) Lökken (Løkken)_Nörre Rubjerg 1",
    "latitude": 57.4223548578627,
    "longitude": 9.75327399016576
  },
  {
    "name": "SPK (ENE-SE) Frederikshavn",
    "latitude": 57.4067781219869,
    "longitude": 10.5168408434472
  },
  {
    "name": "SPK (WNW) Lökken (Løkken)_beach north of Furreby",
    "latitude": 57.393801647504,
    "longitude": 9.73058317018166
  },
  {
    "name": "SPK (WNW-NW) Løkken (Lökken)_Kirkevej",
    "latitude": 57.3904111460854,
    "longitude": 9.72784390072416
  },
  {
    "name": "Lökken Strand Camping",
    "latitude": 57.3856605851122,
    "longitude": 9.72554321483346
  },
  {
    "name": "SPK (WNW) Lökken (Løkken)_beach Furreby",
    "latitude": 57.3842282425111,
    "longitude": 9.72200827517707
  },
  {
    "name": "xxx Bulbjerg/Lild Strand-closed",
    "latitude": 57.1570883563983,
    "longitude": 8.98235072066794
  },
  {
    "name": "SPK (N-NNW) Svinklöv (Svinkløv)_Slettestrand_Jammerbugten",
    "latitude": 57.1508128103871,
    "longitude": 9.31850676782999
  },
  {
    "name": "SPK (NNW) Svinklöv (Svinkløv) 1_Svinklovene",
    "latitude": 57.1478,
    "longitude": 9.2989
  },
  {
    "name": "SP (NNW) Fosdalen",
    "latitude": 57.1396725302306,
    "longitude": 9.43667188491731
  },
  {
    "name": "P Hanstholm_Hamborg",
    "latitude": 57.1181285703894,
    "longitude": 8.65461687315424
  },
  {
    "name": "SPK (N-NE) Hanstholm_Hamborg",
    "latitude": 57.1153583901337,
    "longitude": 8.66087310208457
  },
  {
    "name": "SPK (N-NNE) Hanstholm Camping",
    "latitude": 57.113892737612,
    "longitude": 8.66914053061754
  },
  {
    "name": "SPK (NNE) Vigsö (Vigsø)",
    "latitude": 57.0975038515815,
    "longitude": 8.72404468975082
  },
  {
    "name": "SPK (NW) Klitmøller (Klitmöller) Dune",
    "latitude": 57.0505657139302,
    "longitude": 8.51040302544682
  },
  {
    "name": "SPK (NW-WNW) Nörre Vorupoer (Nørre Vorupør)",
    "latitude": 56.9596910821749,
    "longitude": 8.37310012869937
  },
  {
    "name": "SPW (W, E) Hestehaven (Svenstrup J)_Ferslev",
    "latitude": 56.9449083333333,
    "longitude": 9.93507625054734
  },
  {
    "name": "SPK (NE) Ejerslev_Hesselbjerg Northeast",
    "latitude": 56.9407521092206,
    "longitude": 8.90937732585923
  },
  {
    "name": "Info Ejerslev",
    "latitude": 56.9375033787743,
    "longitude": 8.91439663562283
  },
  {
    "name": "SPK (E-ENE) Ejerslev Havn",
    "latitude": 56.9343105744536,
    "longitude": 8.91164826508472
  },
  {
    "name": "SPK (E-NE) Näsby_Naesby 2",
    "latitude": 56.9076442190513,
    "longitude": 9.1746841682576
  },
  {
    "name": "SPK (E) Dokkedal",
    "latitude": 56.9034920654077,
    "longitude": 10.2606680362623
  },
  {
    "name": "SPK (WNW) Näsby (Naesby) 1",
    "latitude": 56.9019270903176,
    "longitude": 9.17190412530505
  },
  {
    "name": "SPK (NW-NNW) Salgjerhøj_Skibsted",
    "latitude": 56.8988339874207,
    "longitude": 8.78194523857189
  },
  {
    "name": "SPW (NE, SW) Rönbjerg (Rønbjerg)",
    "latitude": 56.896801493056,
    "longitude": 9.18228719994133
  },
  {
    "name": "SPK (NW) Hanklit_top",
    "latitude": 56.895592038045,
    "longitude": 8.75245308533331
  },
  {
    "name": "SPK (NW) Hanklit_lower",
    "latitude": 56.8938307090095,
    "longitude": 8.74920770619678
  },
  {
    "name": "P Hanklit",
    "latitude": 56.8930227272475,
    "longitude": 8.74782708846105
  },
  {
    "name": "SPK (SW) Rönbjerg (Rønbjerg)",
    "latitude": 56.8859548956482,
    "longitude": 9.16897925626041
  },
  {
    "name": "SPK (WNW) Lyngby Strand",
    "latitude": 56.878479561844,
    "longitude": 8.29121036567618
  },
  {
    "name": "SPW (W-WNW, E-ESE) Skivum",
    "latitude": 56.8675,
    "longitude": 9.60166666666667
  },
  {
    "name": "SPK (N) Fur Nord",
    "latitude": 56.8463524822839,
    "longitude": 9.03917701539658
  },
  {
    "name": "P Fur Nord",
    "latitude": 56.8458906414264,
    "longitude": 9.04592054033122
  },
  {
    "name": "SPK (NNW) Fur_Store Knudshoved  2",
    "latitude": 56.8386565949278,
    "longitude": 8.97759438615036
  },
  {
    "name": "SPK (NW-NNW) Fur_Store Knudshoved 1",
    "latitude": 56.8374174002844,
    "longitude": 8.96003222667829
  },
  {
    "name": "SPK (WNW) Agger_Lodbjerg Fyr 2",
    "latitude": 56.8275659571565,
    "longitude": 8.25328280849351
  },
  {
    "name": "SPK (WSW) Fur_Anshede",
    "latitude": 56.8228869547937,
    "longitude": 8.97035596029608
  },
  {
    "name": "SPK (NW) Ertebölle (Ertebølle) 2",
    "latitude": 56.8185237811266,
    "longitude": 9.1851718728763
  },
  {
    "name": "SPK (NW-NNW) Ertebölle (Ertebølle) 1",
    "latitude": 56.8107913951673,
    "longitude": 9.17486158944046
  },
  {
    "name": "SPK (WNW) Agger-Lodbjerg Fyr 1_Porskaer Bakker",
    "latitude": 56.8104038236407,
    "longitude": 8.24484291581106
  },
  {
    "name": "SPK (WNW) Ertebölle (Ertebølle) 3",
    "latitude": 56.8069159848984,
    "longitude": 9.16928755781673
  },
  {
    "name": "SPK (NNE) Eskov",
    "latitude": 56.7917175851684,
    "longitude": 9.09429792801568
  },
  {
    "name": "SPK (SW) Krig Vig 1_Kobberö",
    "latitude": 56.7165898278983,
    "longitude": 8.31781140460849
  },
  {
    "name": "xxx SPK (SW-W) Krig Vig_Helligsø Teglværk",
    "latitude": 56.6964373813662,
    "longitude": 8.34119025989072
  },
  {
    "name": "SPK (SSE) Lovns (Louns)_Store Ramshule",
    "latitude": 56.6788294195188,
    "longitude": 9.20915508940199
  },
  {
    "name": "SPK (SW-W) Lovns (Louns)_Melbjerg Hoved",
    "latitude": 56.6721651133439,
    "longitude": 9.16406649826838
  },
  {
    "name": "SPK (WNW) Knud strand",
    "latitude": 56.6592383659664,
    "longitude": 8.77737014410853
  },
  {
    "name": "Camping Ulbjerg",
    "latitude": 56.6446202357766,
    "longitude": 9.34102236500566
  },
  {
    "name": "SPK (W-WNW) Store Klinthøj",
    "latitude": 56.6297554296437,
    "longitude": 9.313978991813
  },
  {
    "name": "SPK (WNW-W) Ulbjerg Klint",
    "latitude": 56.6233822302227,
    "longitude": 9.31433644230141
  },
  {
    "name": "SPK (W-SW) Odby",
    "latitude": 56.6068041024042,
    "longitude": 8.5039328959712
  },
  {
    "name": "P Serup",
    "latitude": 56.6008674230759,
    "longitude": 8.57052371653699
  },
  {
    "name": "SPK (S) Serup",
    "latitude": 56.6007399392725,
    "longitude": 8.57343404423452
  },
  {
    "name": "P Serup official",
    "latitude": 56.6005893741561,
    "longitude": 8.56247463592404
  },
  {
    "name": "SPK (SW) Gyldendal",
    "latitude": 56.5787874342666,
    "longitude": 8.71642984157589
  },
  {
    "name": "SPK (NW) Venø_Venö North",
    "latitude": 56.5775663845032,
    "longitude": 8.63637417605974
  },
  {
    "name": "Østerbol",
    "latitude": 56.5750599996123,
    "longitude": 8.36615861140714
  },
  {
    "name": "SPK (WNW-NW) Venø By_Venö Borg",
    "latitude": 56.5685133511819,
    "longitude": 8.62832146998566
  },
  {
    "name": "SPK (WNW) Vejlby Klit",
    "latitude": 56.5674099223606,
    "longitude": 8.12914065227566
  },
  {
    "name": "SPK (NE) Remmer Strand",
    "latitude": 56.5666104475601,
    "longitude": 8.43737149284712
  },
  {
    "name": "SPK (WNW-NW) Toftum Bjerge_Dunes",
    "latitude": 56.5607844452328,
    "longitude": 8.55367028546089
  },
  {
    "name": "SPK (WNW-NNW) Toftum Bjerge",
    "latitude": 56.5456348420248,
    "longitude": 8.53272245617702
  },
  {
    "name": "P Parking Toftum Bjerge",
    "latitude": 56.5449787441431,
    "longitude": 8.53502639054377
  },
  {
    "name": "xxx Toftum Bjerge_Jeppes Led",
    "latitude": 56.5425012522433,
    "longitude": 8.52406298770303
  },
  {
    "name": "P Jeppes Led Camping",
    "latitude": 56.5419050399713,
    "longitude": 8.52372155441044
  },
  {
    "name": "SPK (NE) Humlum Fiskerleje",
    "latitude": 56.5413398481296,
    "longitude": 8.57735291584768
  },
  {
    "name": "SPK (W-WSW) Venø (Venö)_Firbjergsande",
    "latitude": 56.539924191801,
    "longitude": 8.6221819218856
  },
  {
    "name": "SPK (NW-WNW) Ejsingholm 2_Nygaard Hage",
    "latitude": 56.534481178925,
    "longitude": 8.74041462366597
  },
  {
    "name": "SPK (W) Bovbjerg_Ferring",
    "latitude": 56.5244621634091,
    "longitude": 8.11809187216306
  },
  {
    "name": "SPK (WSW-W) Ejsingholm 1",
    "latitude": 56.5244579373994,
    "longitude": 8.73863506480976
  },
  {
    "name": "SPK (W) Bovbjerg_Ferring",
    "latitude": 56.5242285475937,
    "longitude": 8.1171581723004
  },
  {
    "name": "SPK (NE) Bremdal",
    "latitude": 56.5205760152956,
    "longitude": 8.6010785183948
  },
  {
    "name": "SPK (ENE-NE) Gjerrild Klint 1_Gjerrild Strand",
    "latitude": 56.5191336107666,
    "longitude": 10.856146381231
  },
  {
    "name": "SPK (W) Bovbjerg Lighthouse",
    "latitude": 56.5134523243753,
    "longitude": 8.11790097496483
  },
  {
    "name": "SPK (E-ENE) Gjerrild Klint 2",
    "latitude": 56.5048551737797,
    "longitude": 10.867902103532
  },
  {
    "name": "SPK (W) Ferring_Trans Kerke",
    "latitude": 56.4982682710874,
    "longitude": 8.12058540717402
  },
  {
    "name": "SPK (NE) Sangstrup Klint",
    "latitude": 56.481170208736,
    "longitude": 10.8963262593678
  },
  {
    "name": "SPK (W) Fjaltring",
    "latitude": 56.4705644677514,
    "longitude": 8.12615225101298
  },
  {
    "name": "SPW (WSW, ENE) Lindtorp",
    "latitude": 56.396350260367,
    "longitude": 8.44220718076287
  },
  {
    "name": "SPK (W) Thorsminde northbounds",
    "latitude": 56.3738134412228,
    "longitude": 8.11721222938021
  },
  {
    "name": "SPK (W) Bjerghuse",
    "latitude": 56.3211943389783,
    "longitude": 8.12188962577779
  },
  {
    "name": "SPW (SSW, NNE) Nr. Felding",
    "latitude": 56.3092468986618,
    "longitude": 8.58868979137097
  },
  {
    "name": "SPK (E-SE) Glatved Strand",
    "latitude": 56.3041914909568,
    "longitude": 10.8645111269201
  },
  {
    "name": "SPK (W) Husby Klit 2_Vester Husby",
    "latitude": 56.290300412699,
    "longitude": 8.12634952554438
  },
  {
    "name": "P Husby Klit 2",
    "latitude": 56.2898643324244,
    "longitude": 8.12830206070382
  },
  {
    "name": "SPK (W) Husby Klit 1_Vedersö (Vedersø Klit)",
    "latitude": 56.2576050332488,
    "longitude": 8.13083047826996
  },
  {
    "name": "P Husby Klit 1_Vedersö",
    "latitude": 56.2571660887807,
    "longitude": 8.13464591862997
  },
  {
    "name": "SPK (S-SSE) Jernhatten Strand_Holme",
    "latitude": 56.2448627444596,
    "longitude": 10.7870266047521
  },
  {
    "name": "P Jernhatten",
    "latitude": 56.2445155414193,
    "longitude": 10.780187598383
  },
  {
    "name": "SPK (NNW) Dejret",
    "latitude": 56.2048143033391,
    "longitude": 10.3916601279176
  },
  {
    "name": "SPK (E) Ebeltoft_Kobberhage 2",
    "latitude": 56.1866989202621,
    "longitude": 10.7366181539364
  },
  {
    "name": "SPK (SE) Fuglsø_Fuglsö",
    "latitude": 56.1835868714902,
    "longitude": 10.5446613004517
  },
  {
    "name": "P Fuglsø",
    "latitude": 56.1824111111111,
    "longitude": 10.5414944444444
  },
  {
    "name": "SPK (SE) Fuglsö (Fuglsø)_Strand",
    "latitude": 56.1822893427419,
    "longitude": 10.5419470602229
  },
  {
    "name": "SPK (ENE-ESE) Ebeltoft_Kobberhage 1",
    "latitude": 56.1801612635903,
    "longitude": 10.7387050212012
  },
  {
    "name": "SPK (SW-SSW) Strands",
    "latitude": 56.1748771913022,
    "longitude": 10.4849348035822
  },
  {
    "name": "SPK (ESE) Ebeltoft_Elsegarde_Blushøj Camping",
    "latitude": 56.1687348824163,
    "longitude": 10.7333972215218
  },
  {
    "name": "Mols Hoved",
    "latitude": [
      10.4147181108669,
      56.1625070365864,
      0
    ],
    "longitude": [
      10.4141694079232,
      56.1628082635348,
      0
    ]
  },
  {
    "name": "SPK (S-SSW) Mols Hoved",
    "latitude": 56.1626096776396,
    "longitude": 10.4054694690274
  },
  {
    "name": "xxx Mols Hoved 2",
    "latitude": 56.1625140772232,
    "longitude": 10.3943698562799
  },
  {
    "name": "SPK (SW) Ebeltoft_Oer Strand",
    "latitude": 56.1618745137692,
    "longitude": 10.6587490621466
  },
  {
    "name": "UH (SSW) Sindbjerg_Sejs Bakker",
    "latitude": 56.1456887096673,
    "longitude": 9.610261732851
  },
  {
    "name": "SPK (WNW) Fejrup (Dommer skrænten)",
    "latitude": 56.1416894285776,
    "longitude": 10.4841918828737
  },
  {
    "name": "SPK (ENE) Arhus_Hotel Marselis",
    "latitude": 56.1272890546834,
    "longitude": 10.2145318161538
  },
  {
    "name": "P Hotel Marselis",
    "latitude": 56.1270244004631,
    "longitude": 10.2142671038053
  },
  {
    "name": "SPK (N-NW) Gilleleje alternative",
    "latitude": 56.1258382445373,
    "longitude": 12.2663004183854
  },
  {
    "name": "SPK (W-WSW) Fejrup",
    "latitude": 56.1247597539283,
    "longitude": 10.4919730145236
  },
  {
    "name": "SPK (NNW) Gilleleje Feriecenter_Gilbjerg Hoved",
    "latitude": 56.1246712210277,
    "longitude": 12.2611937497554
  },
  {
    "name": "SPK (N-ENE) Gilleleje_Nakkehoved Fyr 1",
    "latitude": 56.121585,
    "longitude": 12.3241648701267
  },
  {
    "name": "SPK (N-ENE) Gilleleje_Nakkehoved Fyr 2",
    "latitude": 56.1196438770547,
    "longitude": 12.3487980550487
  },
  {
    "name": "SPK (WNW) Söndervig (Søndervig)",
    "latitude": 56.1185321442705,
    "longitude": 8.10882779278691
  },
  {
    "name": "SPK (WSW) Örby (Ørby)_Helgenes",
    "latitude": 56.110130519119,
    "longitude": 10.5021891620427
  },
  {
    "name": "P Helgenaes_Klaebjerg",
    "latitude": 56.1062356891348,
    "longitude": 10.5409092841107
  },
  {
    "name": "SPW Silkeborg - Christianshede",
    "latitude": 56.105,
    "longitude": 9.39305555555556
  },
  {
    "name": "SPK (SSE-SE) Helgenaes_Klaebjerg",
    "latitude": 56.1029940036808,
    "longitude": 10.5412858856467
  },
  {
    "name": "SPK (SE) Helgenaes_Lushage_Sletterhage",
    "latitude": 56.10083333,
    "longitude": 10.53166667
  },
  {
    "name": "SPK (NW-NNW) Strandbjerggård_Rågeleje",
    "latitude": 56.0965660242489,
    "longitude": 12.1553348575433
  },
  {
    "name": "SPK (ENE-E) Abelshoved_Moesgård Strand",
    "latitude": 56.0933588950525,
    "longitude": 10.247611816087
  },
  {
    "name": "SPK (NW-NNW) Heatherhill (Heather Hill)_Rageleje",
    "latitude": 56.0925776534543,
    "longitude": 12.1480705059742
  },
  {
    "name": "P Abelshoved_Moesgård Strand",
    "latitude": 56.0889126746428,
    "longitude": 10.2479696991755
  },
  {
    "name": "Bjedstrup",
    "latitude": 56.0711447753062,
    "longitude": 9.86776451524496
  },
  {
    "name": "SPK (NW) Tisvilde_Tisvildeleje",
    "latitude": 56.0601906144271,
    "longitude": 12.0686674677128
  },
  {
    "name": "SPK (W-WSW) Hvide Sande_Holmsland Klit_Sönder Lyngvig/Nörre Lyngvig",
    "latitude": 56.0412372828646,
    "longitude": 8.10004539451459
  },
  {
    "name": "SP (NW) Mossø_Mossö",
    "latitude": 56.0287598476927,
    "longitude": 9.82461301760575
  },
  {
    "name": "SPW (SW, NE)  Ejstruphede",
    "latitude": 56.0219305555556,
    "longitude": 8.69063004170162
  },
  {
    "name": "Info Samsö",
    "latitude": 56.0070511725581,
    "longitude": 10.5564805791329
  },
  {
    "name": "SPW (WSW, ENE) Fasterholt optræks center",
    "latitude": 56.0031488389185,
    "longitude": 9.09790108838148
  },
  {
    "name": "P Issehoved",
    "latitude": 55.996848898996,
    "longitude": 10.555118026528
  },
  {
    "name": "SPK (WSW) Hvide Sande",
    "latitude": 55.9967822469749,
    "longitude": 8.12052145900308
  },
  {
    "name": "SPK (NW) Samsö (Samsø)_Issehoved NV",
    "latitude": 55.995281482281,
    "longitude": 10.5482978807275
  },
  {
    "name": "SPK (E) Samsö (Samsø)_Issehoved E_Telegrafbakke",
    "latitude": 55.9947537851427,
    "longitude": 10.5610943176296
  },
  {
    "name": "SPK (E) Samsö (Samsø)_Bylykke Skår_Nordby",
    "latitude": 55.9815794792991,
    "longitude": 10.564363907536
  },
  {
    "name": "SPK (W) Samsö (Samsø)_Balleskår_Balleberg",
    "latitude": 55.9766439217878,
    "longitude": 10.5219036600515
  },
  {
    "name": "SPK (NW) Hundested_Spodsberg Fyr",
    "latitude": 55.975002725046,
    "longitude": 11.8533286687934
  },
  {
    "name": "SPK (NNE-NE) Yderby_Sjaellands Odde",
    "latitude": 55.9738453821944,
    "longitude": 11.3597051981394
  },
  {
    "name": "SPK (N) Klint_Klintebjerg",
    "latitude": 55.9615049223021,
    "longitude": 11.5906996978421
  },
  {
    "name": "SPK (SSW) Søndervang (Söndervang)",
    "latitude": 55.9557212902137,
    "longitude": 11.371199183079
  },
  {
    "name": "P Møgelskår (Moegelskaer)",
    "latitude": 55.9517281326103,
    "longitude": 10.5323023639101
  },
  {
    "name": "SPK (WSW) Samsö (Samsø)_Möglskar (Moegelskaer_Møgelskår)",
    "latitude": 55.9511617311356,
    "longitude": 10.5276603475681
  },
  {
    "name": "P Hvide Sande_Nordsø Camping",
    "latitude": 55.9497031827203,
    "longitude": 8.14597271079675
  },
  {
    "name": "SPK (WSW-W) Holmsland Klit_ Hvide Sande Syd (Argab)",
    "latitude": 55.9495320607747,
    "longitude": 8.14261683260064
  },
  {
    "name": "SPK (WSW-SW) Lille Kregme",
    "latitude": 55.9386805468413,
    "longitude": 12.0303983223225
  },
  {
    "name": "SPK (SSE) Samsö (Samsø)_Maarup Havn",
    "latitude": 55.9383513241017,
    "longitude": 10.5459366416853
  },
  {
    "name": "SPW (W, E) Hammer",
    "latitude": 55.9082272972759,
    "longitude": 9.44725024509774
  },
  {
    "name": "SPW (WNW-W, ESE-E) Frederikssund Nord",
    "latitude": 55.8531666666667,
    "longitude": 12.0699865454566
  },
  {
    "name": "Samsö (Samsø)_Ringe Bjerg",
    "latitude": 55.8524187009236,
    "longitude": 10.5307469773943
  },
  {
    "name": "SP (W-WNW) Lynge Grusgrav",
    "latitude": 55.8279,
    "longitude": 12.2978
  },
  {
    "name": "SPK (WSW) Bjerregaard (Bjerregård)_Nymindegab_Bjorne",
    "latitude": 55.8266712730605,
    "longitude": 8.16996284778412
  },
  {
    "name": "Kyndby Huse",
    "latitude": 55.8179870880925,
    "longitude": 11.9058237481263
  },
  {
    "name": "SPW (WNW, ESE) Ølgod_Ölgod",
    "latitude": 55.7927358755642,
    "longitude": 8.58496234536871
  },
  {
    "name": "SPK (W-WSW) Samsö (Samsø)_Grydenæs Odde",
    "latitude": 55.7799313425448,
    "longitude": 10.5387323339482
  },
  {
    "name": "SPK (WNW-W) Henne Strand",
    "latitude": 55.7453302380859,
    "longitude": 8.17424730151666
  },
  {
    "name": "SPK (N) Røsnæs Rev (Rösnaes Rev)",
    "latitude": 55.7427958709239,
    "longitude": 10.8775038129455
  },
  {
    "name": "SPK (WSW) Vellerup Vig",
    "latitude": 55.7396284704038,
    "longitude": 11.8555751793848
  },
  {
    "name": "SPK (S-SW) Røsnæs (Rösnaes)_Helles Klint",
    "latitude": 55.7295398726913,
    "longitude": 10.9066162995602
  },
  {
    "name": "SPK (S-SW) Ulstrup",
    "latitude": 55.7284376502469,
    "longitude": 10.9777219900349
  },
  {
    "name": "SPK (WSW) Rösnaes (Røsnæs)_Kalundborg Golf Club",
    "latitude": 55.7174966644709,
    "longitude": 11.0015106894805
  },
  {
    "name": "SPK (WNW-W) Kyndelöse (Kyndeløse)",
    "latitude": 55.7151955616645,
    "longitude": 11.8471154682369
  },
  {
    "name": "SPK (SW-WSW) Nostrup Kursuscenter",
    "latitude": 55.702191151317,
    "longitude": 11.0186733314494
  },
  {
    "name": "SPK (SW) Myrekaers Huse",
    "latitude": 55.6975138892056,
    "longitude": 11.0272820198752
  },
  {
    "name": "UH (all) Hersted Høje_Herstedhöje",
    "latitude": 55.6888826541554,
    "longitude": 12.362633193537
  },
  {
    "name": "SPK (WNW) Börsmose (Børsmose)",
    "latitude": 55.6726804378515,
    "longitude": 8.14314639277461
  },
  {
    "name": "SPK (S) Asnaes (Asnæs)_Kalundborg",
    "latitude": 55.6571025430755,
    "longitude": 10.9738534620113
  },
  {
    "name": "P Hvidbjerg",
    "latitude": 55.6415684636008,
    "longitude": 9.74112502909518
  },
  {
    "name": "way P Hvidbjerg-takeoff",
    "latitude": [
      9.741375,
      55.641308,
      0
    ],
    "longitude": [
      9.741123,
      55.641548,
      0
    ]
  },
  {
    "name": "SPK (ENE-E) Hvidbjerg Vejle",
    "latitude": 55.6406713577449,
    "longitude": 9.74364429579234
  },
  {
    "name": "SPK (NW) Vejers Strand_Horns Bjerge",
    "latitude": 55.6270705525463,
    "longitude": 8.11889984777322
  },
  {
    "name": "P Trelde Klint 2",
    "latitude": 55.6249349388064,
    "longitude": 9.83318909152841
  },
  {
    "name": "SPK (N) Trelde Klint_Trelde Naes",
    "latitude": 55.6247342392719,
    "longitude": 9.84086023726162
  },
  {
    "name": "P Trelde Klint 1",
    "latitude": 55.6232741304483,
    "longitude": 9.84473392910107
  },
  {
    "name": "SPK (W-WNW) Fyns Hoved",
    "latitude": 55.6163717270003,
    "longitude": 10.5889872382169
  },
  {
    "name": "SPK (W, SW) Fyns Hoved alternative_small ridges",
    "latitude": 55.6131141792511,
    "longitude": 10.5886875138912
  },
  {
    "name": "SPW (W, E) Tølløse_Töllöse",
    "latitude": 55.5818626846331,
    "longitude": 11.760153408813
  },
  {
    "name": "SPK (W-WSW) Bjerge Strand",
    "latitude": 55.57206954788,
    "longitude": 11.1557768693154
  },
  {
    "name": "Gesten",
    "latitude": 55.5523052616865,
    "longitude": 9.18534875900649
  },
  {
    "name": "SPK (NW) Röjle Klint (Røjle Klint)",
    "latitude": 55.5498862039981,
    "longitude": 9.80130929669302
  },
  {
    "name": "SPK (WSW) Gulebjerg_Esbjerg",
    "latitude": 55.5494585600043,
    "longitude": 8.31613240310468
  },
  {
    "name": "P Gulebjerg",
    "latitude": 55.5494066109079,
    "longitude": 8.31665810509644
  },
  {
    "name": "P Röjle Klint (Røjle Klint)",
    "latitude": 55.5493912738305,
    "longitude": 9.80641813005749
  },
  {
    "name": "SPK (SW) Sjelborg_Esbjerg",
    "latitude": 55.5364363802446,
    "longitude": 8.33631054669867
  },
  {
    "name": "SPK (WNW) Reersø (Reersö) 1",
    "latitude": 55.5338240117212,
    "longitude": 11.0888708253498
  },
  {
    "name": "SPW (WNW, ESE) Skjoldenæsholm",
    "latitude": 55.5231942980509,
    "longitude": 11.8198746884626
  },
  {
    "name": "SPK (WNW)  Reersø (Reersö) 2",
    "latitude": 55.5174422723269,
    "longitude": 11.0819935948009
  },
  {
    "name": "SPK (SW) Skærbæk Airpark_Fredericia",
    "latitude": 55.5104580134999,
    "longitude": 9.63767312535706
  },
  {
    "name": "SPK (N) Vedelshave_Varbjerg",
    "latitude": 55.5090813242328,
    "longitude": 9.92263706238263
  },
  {
    "name": "SPK (SW) Sædding Strand",
    "latitude": 55.5001265919398,
    "longitude": 8.39021768198039
  },
  {
    "name": "SPW (W, E) Kragerup Mansion",
    "latitude": 55.4974,
    "longitude": 11.3954
  },
  {
    "name": "SPK (WSW) Drösselbjerg (Drøsselbjerg) Strand",
    "latitude": 55.4726229111974,
    "longitude": 11.1803885060487
  },
  {
    "name": "SPW (NNW, SSE) Tybrind",
    "latitude": 55.4023,
    "longitude": 9.8615
  },
  {
    "name": "SPK (NE) Stevns Bøgeskoven",
    "latitude": 55.365827837227,
    "longitude": 12.4173601464744
  },
  {
    "name": "SPW (NW, SE) Odense_Hollufgård",
    "latitude": 55.3602236373162,
    "longitude": 10.4266382615312
  },
  {
    "name": "SPK (E-ESE) Mandelhoved_Stevns Klint_Kridtbrud",
    "latitude": 55.3260511516202,
    "longitude": 12.4500879639715
  },
  {
    "name": "SPK (E-ESE) Stevns Klint 1 (Lilledal)",
    "latitude": 55.3207968149076,
    "longitude": 12.446652567804
  },
  {
    "name": "P Stevns Højerup Kirke",
    "latitude": 55.2791873268408,
    "longitude": 12.4442752856455
  },
  {
    "name": "SPK (E-ESE) Stevns Højerup Kirke",
    "latitude": 55.2778921061704,
    "longitude": 12.4453394478565
  },
  {
    "name": "SPK (SE-ESE) Rødvig (Rödvig)_Stevns Korsnæb 1",
    "latitude": 55.2565440939515,
    "longitude": 12.3977313398029
  },
  {
    "name": "SPK (SSW) Rødvig (Rödvig)_Stevns Korsnæb 2",
    "latitude": 55.2556223304801,
    "longitude": 12.3857785127179
  },
  {
    "name": "SPK (SW) Sønderby_Sönderby 1",
    "latitude": 55.2282428213014,
    "longitude": 9.92191113853029
  },
  {
    "name": "SPK (WSW) Sønderby_Fyn",
    "latitude": 55.2241032313735,
    "longitude": 9.92247178233672
  },
  {
    "name": "SPK (SSW) Sønderby",
    "latitude": 55.219036,
    "longitude": 9.934044
  },
  {
    "name": "SPK (S) Sønderby",
    "latitude": 55.2190030105727,
    "longitude": 9.96270857880367
  },
  {
    "name": "P Sönderby S",
    "latitude": 55.2176401572604,
    "longitude": 9.97143983253085
  },
  {
    "name": "SPK (SSW) Klinteby Klint 1_Bjørnebæk",
    "latitude": 55.1930199333954,
    "longitude": 11.5421110599226
  },
  {
    "name": "SPK (SSW-SSE) Klinteby Klint 2",
    "latitude": 55.1908624020699,
    "longitude": 11.5545859320099
  },
  {
    "name": "Kante Halk",
    "latitude": [
      9.66036,
      55.185379,
      0
    ],
    "longitude": [
      9.63912,
      55.176392,
      0
    ]
  },
  {
    "name": "P Parkplatz Halk 2",
    "latitude": 55.1841672963488,
    "longitude": 9.65635214822097
  },
  {
    "name": "SPK (SSE) Halk 2",
    "latitude": 55.1839052376856,
    "longitude": 9.65609177365874
  },
  {
    "name": "P Halk 1",
    "latitude": 55.1800886191846,
    "longitude": 9.64271477551657
  },
  {
    "name": "SPK (SE-SSE) Halk 1_Brunbjerg",
    "latitude": 55.1784254646118,
    "longitude": 9.6442786769594
  },
  {
    "name": "P Helnæs",
    "latitude": 55.1742041666129,
    "longitude": 9.98544320869575
  },
  {
    "name": "SPK (WNW) Helnaes",
    "latitude": 55.1721920109977,
    "longitude": 9.98401568712987
  },
  {
    "name": "SPK (WSW) Helnaes alternative",
    "latitude": 55.1608199651744,
    "longitude": 9.98662525157423
  },
  {
    "name": "SPK (ENE) Helnaes_Hvidklint",
    "latitude": 55.1567025539361,
    "longitude": 10.0148293313472
  },
  {
    "name": "SPK (W) Stejlebanke",
    "latitude": 55.1434876405516,
    "longitude": 11.8181750433934
  },
  {
    "name": "SPK (SW-SSE) Knolden",
    "latitude": 55.060216390024,
    "longitude": 10.2045672020368
  },
  {
    "name": "Holm Nørreskov",
    "latitude": 55.0539698065895,
    "longitude": 9.65023381362323
  },
  {
    "name": "SPK (NE) Varnaes (Varnæs)",
    "latitude": 55.0414058679389,
    "longitude": 9.58765763192727
  },
  {
    "name": "Felstedskov",
    "latitude": 55.0200647149013,
    "longitude": 9.51281613641937
  },
  {
    "name": "SPK (WSW) Emmerlev 2_Højer",
    "latitude": 54.9996556872431,
    "longitude": 8.65176624838528
  },
  {
    "name": "SPK (WSW) Emmerlev_Højer",
    "latitude": 54.9905982123754,
    "longitude": 8.65716645245062
  },
  {
    "name": "P Emmerlev",
    "latitude": 54.9875737895978,
    "longitude": 8.66057538504079
  },
  {
    "name": "SPK (NW-WNW) Marsden Bay",
    "latitude": 54.9796248974529,
    "longitude": -1.38116233662496
  },
  {
    "name": "SPK (E-SE) Møns Klint (Möns Klint)",
    "latitude": 54.9580044023942,
    "longitude": 12.5483926970522
  },
  {
    "name": "SPK (SE) Møns Klint (Möns Klint) 2",
    "latitude": 54.9507946030374,
    "longitude": 12.5445389900754
  },
  {
    "name": "SPK (SSE-SE) Møns Klint (Möns Klint) 3",
    "latitude": 54.9463632146864,
    "longitude": 12.540620615445
  },
  {
    "name": "SPK (SE) Møn Hjelm Bugt (Mön Hjelmbugt)",
    "latitude": 54.9386391228695,
    "longitude": 12.2831032432898
  },
  {
    "name": "SPK (E-ESE) Mommark 2",
    "latitude": 54.9296081483967,
    "longitude": 10.0442844820855
  },
  {
    "name": "SPK (E-ENE) Mommark 1",
    "latitude": 54.9169454946002,
    "longitude": 10.0449698693773
  },
  {
    "name": "SPK (E-ENE) Mommark Als",
    "latitude": 54.9044455589051,
    "longitude": 10.051783498951
  },
  {
    "name": "SPK (SE) Sonderborg",
    "latitude": 54.9040749889682,
    "longitude": 9.77876912775098
  },
  {
    "name": "P Sonderborg",
    "latitude": 54.9026503061997,
    "longitude": 9.76031946563404
  },
  {
    "name": "SPK (S-SE) Sonderborg",
    "latitude": 54.8981956751918,
    "longitude": 9.75901859666353
  },
  {
    "name": "P Spar Es",
    "latitude": 54.8781614350253,
    "longitude": 9.7379542431207
  },
  {
    "name": "SPK (E-ENE) Spar Es (Spar-Es)_Broager",
    "latitude": 54.8770254125183,
    "longitude": 9.74063630505233
  },
  {
    "name": "SPK (SSE-S) Kegnæshøj_Sonderby",
    "latitude": 54.8653195602378,
    "longitude": 9.90245778340431
  },
  {
    "name": "P Kegnæshøj_Sonderby",
    "latitude": 54.8649631164576,
    "longitude": 9.90617979914452
  },
  {
    "name": "SPK (SW, SE) Kegnæshøj",
    "latitude": 54.8531994890156,
    "longitude": 9.98657970838984
  },
  {
    "name": "SPK (SSE) Kegnæshøj",
    "latitude": 54.8528613681718,
    "longitude": 9.96416530013353
  },
  {
    "name": "P Kegnæshøj",
    "latitude": 54.8526452714907,
    "longitude": 9.96016665870164
  },
  {
    "name": "xxx Skelde Vig",
    "latitude": 54.8436396732759,
    "longitude": 9.71353341973906
  },
  {
    "name": "SPK (SE) Skeldemark",
    "latitude": 54.8406139381625,
    "longitude": 9.75277432174244
  },
  {
    "name": "SPK (NE-NNE) Stohl",
    "latitude": 54.4769489716261,
    "longitude": 10.1510924228404
  },
  {
    "name": "Weg P zum Start",
    "latitude": [
      10.1499983030988,
      54.4765703649191,
      0
    ],
    "longitude": [
      10.1512215795375,
      54.4771505448674,
      0
    ]
  },
  {
    "name": "Kante",
    "latitude": [
      10.156088,
      54.475574,
      0
    ],
    "longitude": [
      10.133171,
      54.4842,
      0
    ]
  },
  {
    "name": "P Parkplatz Stohl",
    "latitude": 54.4725445648071,
    "longitude": 10.1487486927956
  },
  {
    "name": "Wohlde",
    "latitude": 54.3883499308037,
    "longitude": 9.27483289212633
  },
  {
    "name": "Schalkholz",
    "latitude": 54.2485637996402,
    "longitude": 9.27591626566293
  },
  {
    "name": "Alt Bokhorst",
    "latitude": 54.1025417066416,
    "longitude": 10.1450132594098
  },
  {
    "name": "SPW (WSW, SSW, ENE, NNE) Flugplatz Neumünster",
    "latitude": 54.0799397646147,
    "longitude": 9.94115783267095
  },
  {
    "name": "SPW (WNW, ESE) Kleinkummerfeld",
    "latitude": 54.0267002116466,
    "longitude": 10.0809573832794
  },
  {
    "name": "SPW (all) Hungriger Wolf _ Itzehoe",
    "latitude": 53.9916319555696,
    "longitude": 9.5729228281636
  },
  {
    "name": "Geschendorf",
    "latitude": 53.9201742341724,
    "longitude": 10.4543044149667
  },
  {
    "name": "SPW (W, E) Uetersen",
    "latitude": 53.6496277275879,
    "longitude": 9.70041241483136
  },
  {
    "name": "P Hetlinger Schanze",
    "latitude": 53.6062857994199,
    "longitude": 9.60281930497856
  },
  {
    "name": "GH (SW) Deich bei Hetlinger Schanze",
    "latitude": 53.6044036822068,
    "longitude": 9.60120114344824
  },
  {
    "name": "P Fährmanssand",
    "latitude": 53.581649714145,
    "longitude": 9.66423760637202
  },
  {
    "name": "GH (SW) Deich bei Fährmannssand",
    "latitude": 53.5806963143306,
    "longitude": 9.66381613341205
  },
  {
    "name": "SPW (all) Waren_Segelflugplatz Vielist",
    "latitude": 53.5646806848614,
    "longitude": 12.6547370366248
  },
  {
    "name": "Wittenburg bei Schwerin",
    "latitude": 53.4863449018299,
    "longitude": 11.1676871869367
  },
  {
    "name": "UH (SW) Neugraben- Fischbek",
    "latitude": 53.4639827017677,
    "longitude": 9.84509252211904
  },
  {
    "name": "SPW (SE, NW) Segelflugplatz Holste-Hellingst",
    "latitude": 53.3756013832055,
    "longitude": 8.84907951305478
  },
  {
    "name": "Warlitz",
    "latitude": 53.3687093639674,
    "longitude": 11.1345341360005
  },
  {
    "name": "NGL Auffahrt für Windenflieger",
    "latitude": [
      11.5974060627484,
      53.3661106327651,
      0
    ],
    "longitude": [
      11.5955351253059,
      53.3663727856175,
      0
    ]
  },
  {
    "name": "SPW (all) Flugplatz Neustadt-Glewe",
    "latitude": 53.3607022105507,
    "longitude": 11.6135181833834
  },
  {
    "name": "Giehle",
    "latitude": 53.3532877183879,
    "longitude": 8.93856885513004
  },
  {
    "name": "SPW (WSW, ENE) Müritzflugplatz_Rechlin-Lärz",
    "latitude": 53.3064459085409,
    "longitude": 12.7467560447118
  },
  {
    "name": "SPW (SSW-SE) Marienheim_Lychen",
    "latitude": 53.2541828056212,
    "longitude": 13.3674022190328
  },
  {
    "name": "SPW (NW-NNE) Marienheim_Lychen",
    "latitude": 53.245727178716,
    "longitude": 13.36220400673
  },
  {
    "name": "Grasberg",
    "latitude": 53.208602843056,
    "longitude": 9.0152263641667
  },
  {
    "name": "Vorwerk",
    "latitude": 53.198654958811,
    "longitude": 9.1354322433472
  },
  {
    "name": "SPW (NNW-NW, SSE-SE) Charlottenpolder",
    "latitude": 53.1981403673481,
    "longitude": 7.23787590081347
  },
  {
    "name": "SPW (W, E) Schneverdingen_Flugfeld Reinsehlen",
    "latitude": 53.1475136787327,
    "longitude": 9.7927292839073
  },
  {
    "name": "Lemwerder",
    "latitude": 53.1460012726069,
    "longitude": 8.62198164410373
  },
  {
    "name": "SPW (S-SE) Hörpel",
    "latitude": 53.1392972351016,
    "longitude": 10.0334961507257
  },
  {
    "name": "SPW (N-NNW, S-SSE) Altenmedingen (Reisenmoor)",
    "latitude": 53.1351210455309,
    "longitude": 10.5987744644667
  },
  {
    "name": "SPW (N-NW) Hörpel",
    "latitude": 53.1307754890564,
    "longitude": 10.0354794558289
  },
  {
    "name": "Rotenburg / Wuemme",
    "latitude": 53.1270235405093,
    "longitude": 9.35469974118952
  },
  {
    "name": "Riekenbostel",
    "latitude": 53.032671587439,
    "longitude": 9.4689702987671
  },
  {
    "name": "SPW (ESE-SE) Kirchwalsede",
    "latitude": 53.0209145169417,
    "longitude": 9.36989473900425
  },
  {
    "name": "SPW (WNW-NW) Kirchwalsede",
    "latitude": 53.0175204816152,
    "longitude": 9.38151384418165
  },
  {
    "name": "P Lüdingen S",
    "latitude": 53.0141269749516,
    "longitude": 9.48847964274043
  },
  {
    "name": "SPW (WSW-SSE) Lüdingen",
    "latitude": 53.0137953023327,
    "longitude": 9.48922789377443
  },
  {
    "name": "SPW (WSW, ENE) Lüdingen",
    "latitude": 53.0034362743972,
    "longitude": 9.49617983636946
  },
  {
    "name": "SPW (N-NNE) Lüdingen",
    "latitude": 53.0029979589588,
    "longitude": 9.49021155893509
  },
  {
    "name": "SPW (WSW-S) Blocksberg",
    "latitude": 52.8871275433629,
    "longitude": 12.6988118940156
  },
  {
    "name": "SPW (N-ENE) Blocksberg",
    "latitude": 52.8775431661999,
    "longitude": 12.6889821109523
  },
  {
    "name": "SPW (E, W) Neuruppin_Vierruthenberg",
    "latitude": 52.847128331378,
    "longitude": 12.8242309929649
  },
  {
    "name": "Flugplatz Segeletz",
    "latitude": 52.8260793475014,
    "longitude": 12.5465091526553
  },
  {
    "name": "SPW (all) Stölln",
    "latitude": 52.7411115803873,
    "longitude": 12.3858575271165
  },
  {
    "name": "Altlewin",
    "latitude": 52.7043135463497,
    "longitude": 14.2536256780751
  },
  {
    "name": "P Eldingen",
    "latitude": 52.6743336267212,
    "longitude": 10.3745492562127
  },
  {
    "name": "SPW (SW) Metzingen_Eldingen (Berliner Heide)",
    "latitude": 52.6735486356084,
    "longitude": 10.3735434619019
  },
  {
    "name": "SPW (NE) Metzingen_Eldingen (Berliner Heide)",
    "latitude": 52.6659683664678,
    "longitude": 10.3659591962781
  },
  {
    "name": "UH (W-WSW) Volkspark Lübars",
    "latitude": 52.6106816526515,
    "longitude": 13.3686328402582
  },
  {
    "name": "Dudensen",
    "latitude": 52.592412159444,
    "longitude": 9.4309473038889
  },
  {
    "name": "SPW-HG (NE, SW) Strausberg Flugplatz",
    "latitude": 52.5820475339198,
    "longitude": 13.9176235858032
  },
  {
    "name": "SPW (NNW, SSE) Estorf",
    "latitude": 52.5792963765324,
    "longitude": 9.15389086738349
  },
  {
    "name": "SPW (E, W) Bahrenborsteler Bruch Ost-West",
    "latitude": 52.5773005228492,
    "longitude": 8.77017185964641
  },
  {
    "name": "SPW (N) Bahrenborsteler Bruch II",
    "latitude": 52.573350656389,
    "longitude": 8.7622404097222
  },
  {
    "name": "SPW-HG (WSW, ENE) Kuppendorf Ultralight Airfield",
    "latitude": 52.5568724156697,
    "longitude": 8.88378789277053
  },
  {
    "name": "SPW (NE, SW) Leese",
    "latitude": 52.5113135932206,
    "longitude": 9.13094826427256
  },
  {
    "name": "LP Teufelsberg",
    "latitude": 52.502266,
    "longitude": 13.242677
  },
  {
    "name": "UH (W-N) Teufelsberg",
    "latitude": 52.502195,
    "longitude": 13.247023
  },
  {
    "name": "SPW (SSW-S) Reitwein",
    "latitude": 52.4943429114221,
    "longitude": 14.582876192591
  },
  {
    "name": "SPW (NNE-N) Reitwein",
    "latitude": 52.4830174732072,
    "longitude": 14.5835806526033
  },
  {
    "name": "GH (all) Tempelhofer Freiheit",
    "latitude": 52.473575,
    "longitude": 13.4050861111111
  },
  {
    "name": "Getelo",
    "latitude": 52.4622720588585,
    "longitude": 6.80756385790725
  },
  {
    "name": "Brockum_Stemweder Berg",
    "latitude": 52.458333,
    "longitude": 8.423333
  },
  {
    "name": "Wunstorf",
    "latitude": 52.4547893025314,
    "longitude": 9.41986766079816
  },
  {
    "name": "SPW (W, E) Saarmund",
    "latitude": 52.3077041206695,
    "longitude": 13.0960423820646
  },
  {
    "name": "Obermehnen",
    "latitude": 52.296775,
    "longitude": 8.559079
  },
  {
    "name": "SPW (E, W) Am Deister",
    "latitude": 52.2938447976841,
    "longitude": 9.38095165588196
  },
  {
    "name": "SPW (S-SSW) Engerskamp_Schnathorst",
    "latitude": 52.2798528141172,
    "longitude": 8.72120690723796
  },
  {
    "name": "SPW (E) Engerskamp_Schnathorst (Mühlenflieger)",
    "latitude": 52.2711563055179,
    "longitude": 8.72825646731273
  },
  {
    "name": "SPW (W) Engerskamp_Schnathorst (Mühlenflieger)",
    "latitude": 52.2703446976979,
    "longitude": 8.73804042478009
  },
  {
    "name": "SP-HG (SSW-S) Porta Westfalica_Wittekindsburg",
    "latitude": 52.2468925689418,
    "longitude": 8.88388881193044
  },
  {
    "name": "LP Wittekindsburg",
    "latitude": 52.2410780276989,
    "longitude": 8.88340016887194
  },
  {
    "name": "SPW-HG (E, W) Wittekindsburg",
    "latitude": 52.2410716614289,
    "longitude": 8.88280587934869
  },
  {
    "name": "Westkilver",
    "latitude": 52.236667,
    "longitude": 8.453889
  },
  {
    "name": "Muckum - Steinbrink",
    "latitude": 52.234722,
    "longitude": 8.556111
  },
  {
    "name": "SPW (E,W) Flugplatz Melle",
    "latitude": 52.2012345868445,
    "longitude": 8.37970432101826
  },
  {
    "name": "SPW (WNW, ESE) Schwitzberg",
    "latitude": 52.1962367277971,
    "longitude": 14.5842778750633
  },
  {
    "name": "SPW (N, S) Pattenpühle_Flugplatz Möckern",
    "latitude": 52.1758003381161,
    "longitude": 11.9303662308235
  },
  {
    "name": "Krankenhagen",
    "latitude": 52.1477163250976,
    "longitude": 9.05596039578807
  },
  {
    "name": "SPW (W-WSW) Westerenger",
    "latitude": 52.128088848418,
    "longitude": 8.51271148751028
  },
  {
    "name": "SPW (E-ENE) Westerenger",
    "latitude": 52.1265675941817,
    "longitude": 8.50398904264248
  },
  {
    "name": "SPW (WSW) Häger",
    "latitude": 52.0954757095251,
    "longitude": 8.44342696395003
  },
  {
    "name": "SPW (ENE) Häger (Meyer zu Rahden)",
    "latitude": 52.0935364135547,
    "longitude": 8.43365130103953
  },
  {
    "name": "LP Hameln",
    "latitude": 52.0844682141466,
    "longitude": 9.35937912882344
  },
  {
    "name": "SP (ESE) Hameln_Ohrberg",
    "latitude": 52.0752878894493,
    "longitude": 9.35775578787671
  },
  {
    "name": "SP (N) Nussberg_Eberholzen",
    "latitude": 52.0590138888889,
    "longitude": 9.83994166666667
  },
  {
    "name": "Oedingberge",
    "latitude": 52.053889,
    "longitude": 7.948333
  },
  {
    "name": "SP (SW-W) Ascheloh-Hermannsweg",
    "latitude": 52.0507245364528,
    "longitude": 8.40981018064634
  },
  {
    "name": "UH (SW) Ascheloh Übungshang",
    "latitude": 52.0478587023101,
    "longitude": 8.40604610731074
  },
  {
    "name": "LP Ascheloh-Hermannsweg",
    "latitude": 52.0470239467322,
    "longitude": 8.40482620090679
  },
  {
    "name": "SP (SW-SSE) Börry_Am Hellberg",
    "latitude": 52.0459631319032,
    "longitude": 9.45249138192055
  },
  {
    "name": "LP Börry am Hellberg",
    "latitude": 52.0425024842499,
    "longitude": 9.45489338583565
  },
  {
    "name": "SP (NE) Ascheloh-Herrmannsweg NO (Schwedenschanze)",
    "latitude": 52.0333198943827,
    "longitude": 8.43188085050192
  },
  {
    "name": "LP Ascheloh Schwedenschanze",
    "latitude": 52.0330812957785,
    "longitude": 8.43730105423768
  },
  {
    "name": "SPW (SSE, NNW) Künsebeck",
    "latitude": 52.0296957338852,
    "longitude": 8.38193464312496
  },
  {
    "name": "UH (SW) Schäferstuhl bein Segelflugplatz",
    "latitude": 52.0285848198468,
    "longitude": 10.3670901430863
  },
  {
    "name": "SPW (SW) Holzer Berg_Wernershöhe_Alfeld",
    "latitude": 52.0154513961452,
    "longitude": 9.88547113034057
  },
  {
    "name": "Schleppstrecke Leinewiesen",
    "latitude": [
      9.818748,
      51.997002,
      0
    ],
    "longitude": [
      9.807998,
      52.002892,
      0
    ]
  },
  {
    "name": "P Altes Lager-hier Einfahrt zum Flugplatz",
    "latitude": 51.9994416666667,
    "longitude": 12.9747277777778
  },
  {
    "name": "SPW (NW, SE) Leinewiesen_Pfedemarsch",
    "latitude": 51.9968433143284,
    "longitude": 9.81912918351165
  },
  {
    "name": "SPW (E-ESE, W-WNW, N-NNE, S-SSW) Altes Lager",
    "latitude": 51.9948942956651,
    "longitude": 12.9834971651487
  },
  {
    "name": "SP (WSW-SW) Dielmissen am Ith",
    "latitude": 51.981219401054,
    "longitude": 9.6262013912201
  },
  {
    "name": "LP Königszinne_Bodenwerder",
    "latitude": 51.9786488403482,
    "longitude": 9.52043211954091
  },
  {
    "name": "SP (W) Königszinne_Bodenwerder",
    "latitude": 51.977876275446,
    "longitude": 9.52602080442316
  },
  {
    "name": "LP Dielmissen am Ith",
    "latitude": 51.9770629005308,
    "longitude": 9.6168556232716
  },
  {
    "name": "P Dielmissen",
    "latitude": 51.9740522035249,
    "longitude": 9.61484125589582
  },
  {
    "name": "SPW (NE, SW) Coesfeld-Gaupel",
    "latitude": 51.9712053127497,
    "longitude": 7.20972299952899
  },
  {
    "name": "SP (NE) Bad Pyrmont_Hohe Kugelberg",
    "latitude": 51.962378784772,
    "longitude": 9.22724177776155
  },
  {
    "name": "LP Ithwiesen",
    "latitude": 51.9581593113893,
    "longitude": 9.66206853047822
  },
  {
    "name": "SP-HG (E) Weserblick_Himmelspforte",
    "latitude": 51.9580672546204,
    "longitude": 9.49648990617776
  },
  {
    "name": "LP Hohe Nordosthang_Brökeln",
    "latitude": 51.9575628004812,
    "longitude": 9.46743513936641
  },
  {
    "name": "UH (NE-ENE) Harderode_Ithwiesen",
    "latitude": 51.9565818441158,
    "longitude": 9.65760624840717
  },
  {
    "name": "LP Hohe",
    "latitude": 51.9556601942029,
    "longitude": 9.4587696718101
  },
  {
    "name": "SP (NE) Hohe - Kugelberg, Nordosthang",
    "latitude": 51.9549840423253,
    "longitude": 9.45751630898845
  },
  {
    "name": "SP (NNW) Königszinne_Brökeln",
    "latitude": 51.9493382759537,
    "longitude": 9.48680840818916
  },
  {
    "name": "SP (SE) Pegestorf",
    "latitude": 51.9408746031849,
    "longitude": 9.4928415132672
  },
  {
    "name": "SPW (SW, NE) Oerlinghausen Segelflugplatz",
    "latitude": 51.9310015485702,
    "longitude": 8.66601553153562
  },
  {
    "name": "SPW (W) Warendorf_Freckenhorst",
    "latitude": 51.9226303583445,
    "longitude": 8.01371695535438
  },
  {
    "name": "SPW (E) Warendorf_Freckenhorst",
    "latitude": 51.9222519756176,
    "longitude": 8.00512929728147
  },
  {
    "name": "SPW (all) Stapelburg Airfield",
    "latitude": 51.9143410129013,
    "longitude": 10.6828638346165
  },
  {
    "name": "LP Rammelsberg_Goslar",
    "latitude": 51.8949769249163,
    "longitude": 10.4284937781841
  },
  {
    "name": "P Parken Rammelsberg",
    "latitude": 51.8937115612883,
    "longitude": 10.42794958972
  },
  {
    "name": "Verl_Sürenheide",
    "latitude": 51.8931953368013,
    "longitude": 8.54074876098081
  },
  {
    "name": "LP Butterberg",
    "latitude": 51.8900695915374,
    "longitude": 10.5733739316662
  },
  {
    "name": "SP (NW) Rammelsberg",
    "latitude": 51.8896430697699,
    "longitude": 10.4309568959655
  },
  {
    "name": "SP (N-NNE) Bad Harzburg_Butterberg",
    "latitude": 51.887830890898,
    "longitude": 10.573990611601
  },
  {
    "name": "SP (SW) Rammelsberg",
    "latitude": 51.8873909573992,
    "longitude": 10.4299430056953
  },
  {
    "name": "UH (E-SE) Wildhang",
    "latitude": 51.875034,
    "longitude": 8.895836
  },
  {
    "name": "SP (NNE) Linnenkamp_Auf dem Ziegenrücken",
    "latitude": 51.869092810542,
    "longitude": 9.66591011758478
  },
  {
    "name": "SP (NNW) Holzberg",
    "latitude": 51.8628553378754,
    "longitude": 9.65249312643509
  },
  {
    "name": "SPW (N, S) Segelflugplatz Vinsebeck",
    "latitude": 51.8436631729207,
    "longitude": 9.01309635396914
  },
  {
    "name": "SP (SSE) Heukenberg",
    "latitude": 51.8274020757772,
    "longitude": 9.64930994039002
  },
  {
    "name": "LP Heukenberg",
    "latitude": 51.8273376882417,
    "longitude": 9.65386986360284
  },
  {
    "name": "SPW (E, W) Sonderlandeplatz Drosa",
    "latitude": 51.825247884285,
    "longitude": 11.8961449380442
  },
  {
    "name": "SP (SW) Brenkhausen_Räuschenberg",
    "latitude": 51.8083270156759,
    "longitude": 9.3719130805387
  },
  {
    "name": "LP Räuschenberg oben",
    "latitude": 51.8071238549652,
    "longitude": 9.37082929827387
  },