[{"name":"SP (E-ENE) Kachanoll","latitude":42.9711894496791,"longitude":21.0862436941589},{"name":"SP (SW) Mokna","latitude":42.8645327899358,"longitude":20.5544962049099},{"name":"SP (SE-SSE) Black Top","latitude":42.6827903713185,"longitude":20.2642293861504},{"name":"SP (E-SE) Gjeravica","latitude":42.5273572259096,"longitude":20.1558117761361},{"name":"SP (W) Zatriq","latitude":42.4484328353302,"longitude":20.6223819826044},{"name":"SP (SW-NW) Skorobiste_Skorobisht","latitude":42.2288064424887,"longitude":20.8340462432902},{"name":"SP (NNW-SW) Novosel","latitude":42.2040748060814,"longitude":20.7767158290411},{"name":"SP (S) Pusi Thate","latitude":42.1167454527842,"longitude":20.392389833887},{"name":"SPK (SSW) Rana / Hjedhme  Sand Dune","latitude":41.8345262449878,"longitude":19.5372665718349},{"name":"SP (W-WSW) Tirana_Dajti (Dajtit Mountain)","latitude":41.3691354473037,"longitude":19.9036613480323},{"name":"SPK (W-WSW) Durres","latitude":41.3181520410974,"longitude":19.434379808118},{"name":"SP (SE) Elbasan","latitude":41.112173373279,"longitude":20.0121999895231},{"name":"SP (E) Shpirag_Berat","latitude":40.6686827336506,"longitude":19.8666568509271},{"name":"SP (W) Shpirag_Berat","latitude":40.6658712497722,"longitude":19.8657329060828},{"name":"SP (W-WNW) Kiorc_Korca_(Korçë) Morava Mountain","latitude":40.6103651842654,"longitude":20.8137837013256},{"name":"SPK (W-NW) Vlora_Kanine_Shashika","latitude":40.4106317347175,"longitude":19.5065307472116},{"name":"SPK (SW-S) Llogara_Antennas-Eagle's Sky","latitude":40.1987982334929,"longitude":19.5738252168296},{"name":"SPK (SW-SE) Llogara Pass_Dhermi-Eagle's Sky","latitude":40.1882498514405,"longitude":19.5992440389298},{"name":"SP (SW-WSW) Çayup_Shajupi Gjirokastra","latitude":40.179585098976,"longitude":20.1610582529757},{"name":"SPK (S-SSW) Drymades beach","latitude":40.160978959518,"longitude":19.6040886348391},{"name":"SPK (SW) Dhermi","latitude":40.1497402580227,"longitude":19.6486217259632},{"name":"SP (W-SW) Pilur","latitude":40.1290713049886,"longitude":19.7721118500628},{"name":"SP (S-SW) Mesopotam","latitude":39.9254,"longitude":20.1125},{"name":"SP (S-SSE) Pic de Besali","latitude":42.6376408988066,"longitude":1.53782596683283},{"name":"SP (SE) Coma Pedrosa","latitude":42.590651702738,"longitude":1.44338003871552},{"name":"SP (SW-W) Pic de Casamanya","latitude":42.5841079156868,"longitude":1.56444659554542},{"name":"SP (SW-WSW) Port Envalira_Maia","latitude":42.5543965509092,"longitude":1.71803410588984},{"name":"SP (SE) Coll de la Botella","latitude":42.5536966373214,"longitude":1.42508807737298},{"name":"SP (WNW-WSW, SE-E) Vallnord_Coll de la Botella_Pal Ski Resort","latitude":42.5470406104315,"longitude":1.45291695705429},{"name":"SP (W) Encamp_Cap del Rep","latitude":42.543303747416,"longitude":1.60946057509751},{"name":"SP (S-SE) Borda Cardago","latitude":42.5400817965174,"longitude":1.57696337994369},{"name":"SP (S) Intermig del Cap del Rep","latitude":42.538963430057,"longitude":1.60158137594666},{"name":"SP (W-SW) Port d'Envalira_Grau Roig Antennas","latitude":42.5333809510911,"longitude":1.71586638136192},{"name":"SP (E) Beixalis_Encamp","latitude":42.5308692096159,"longitude":1.55373216290123},{"name":"SP (S) Pic del Carroy_Carroi","latitude":42.5137921905873,"longitude":1.49604263998881},{"name":"SP (SW) Grau Roig_Via Ferrata","latitude":42.5130032796454,"longitude":1.71132287015037},{"name":"SP (NW-SW) La Rabassa_Sant Julia de Loria","latitude":42.450020781883,"longitude":1.55500292348469},{"name":"SP (SE, SW) Méranges","latitude":42.4486462658356,"longitude":1.80696547749889},{"name":"SPK (NNW) Knokke-Het Zoute","latitude":51.3638,"longitude":3.338},{"name":"SPK (NNW) Bredene","latitude":51.2471816361817,"longitude":2.95295572896752},{"name":"SPK (NNW-NW) Oostduinkerke","latitude":51.1278921729676,"longitude":2.65164513639726},{"name":"SPW (WNW, ESE, SW, NE) Beauvechain","latitude":50.75079735057,"longitude":4.76443147262466},{"name":"SPW (E,W) Waremme","latitude":50.677,"longitude":5.2575},{"name":"SP (S) Olne","latitude":50.5773309014828,"longitude":5.75903736618187},{"name":"SP (NE) Prayon","latitude":50.5759407879742,"longitude":5.65585365975838},{"name":"SP (W) d'Avister","latitude":50.5475485689779,"longitude":5.57178094975453},{"name":"SP (NNE) Andenne","latitude":50.4850522173627,"longitude":5.07601737570675},{"name":"SP (SE) Terril du Roton","latitude":50.4417050970492,"longitude":4.54089877543978},{"name":"SP (S-SE, N) Terril van Levant","latitude":50.4362237107609,"longitude":3.90225479373036},{"name":"SP (NE) Floreffe","latitude":50.431056268985,"longitude":4.74452413594989},{"name":"SP (SE) Hamoir_Hai des Laies","latitude":50.4169,"longitude":5.5081},{"name":"SPW-HG (ESE, WNW) Büllingen","latitude":50.4159742946253,"longitude":6.2740022674529},{"name":"SP (W) Coo-West","latitude":50.3988140645394,"longitude":5.88768285631937},{"name":"SP (SSW) Coo Sud","latitude":50.3958297458806,"longitude":5.88819065250373},{"name":"SPW-HG (E, W) Maillen","latitude":50.3751795656835,"longitude":4.92639158018587},{"name":"SP (SSW-SSE) Les 7 Meuses","latitude":50.3539938358631,"longitude":4.86206366113044},{"name":"SP (E) Marcourt","latitude":50.2159223140468,"longitude":5.51653995667678},{"name":"SP (SW-S) La Roche_Farneur","latitude":50.1865644015472,"longitude":5.55679792888419},{"name":"SP (NW) Rochefort_Lhoast - Abbaye","latitude":50.1835584070545,"longitude":5.2291294725553},{"name":"SP (N-NW) La Roche_Corimont (Corumont)","latitude":50.1788604231948,"longitude":5.56860735280523},{"name":"SP (SW) Maboge_Les Crestelles","latitude":50.1744018108674,"longitude":5.64092621348633},{"name":"SP (N) Rochefort_Le Rond du Roi","latitude":50.1497,"longitude":5.2061},{"name":"SP (S) Han-sur-Lesse_Le Belvédere","latitude":50.1345374883361,"longitude":5.19888586390763},{"name":"SP (NNW-NNE) Beauraing","latitude":50.1129571095897,"longitude":5.00998477194361},{"name":"SP (NW-N) La Roche de Saloru_Membre sur Semois","latitude":49.8628502619555,"longitude":4.91071464850157},{"name":"SP (SW) Le Jambon de la Semois","latitude":49.8542471916123,"longitude":4.93911725438322},{"name":"SP (S-SSW) Rochehaut","latitude":49.8394890235418,"longitude":5.00243970179947},{"name":"SP (NNE) Corbion","latitude":49.8066,"longitude":5.0005},{"name":"SP (NE-ENE) Gomila","latitude":44.9226713406282,"longitude":16.052554772866},{"name":"SP (NE) Sanski Most  \"Magarice\"","latitude":44.7550320704981,"longitude":16.6294496065032},{"name":"SP (E-NE) Banja Luka_Ponir","latitude":44.7360972385387,"longitude":17.2272122675573},{"name":"SP (NW) Lipovac","latitude":44.6935403382308,"longitude":17.3066471058116},{"name":"SP (S) Lipovac","latitude":44.6808985595466,"longitude":17.3030264167983},{"name":"SP (NE-N) Gostilj","latitude":44.6616011436732,"longitude":18.2017327519961},{"name":"SP (NNW-WNW) Gostilj","latitude":44.660365865952,"longitude":18.1992705085528},{"name":"SP (SW) Ruj 2","latitude":44.6278285397642,"longitude":18.1160995408858},{"name":"SP (SE) Ruj 1","latitude":44.6273326635985,"longitude":18.1205888534168},{"name":"SP (W-SW) Krupa na Vrbasu","latitude":44.6206883793624,"longitude":17.1605616186444},{"name":"SP (NE-E) Grcka Gradina_Manjaca Velika Gradina_Manjača","latitude":44.6171730281496,"longitude":16.9577164049886},{"name":"SP (SW) Manjaca Repeater","latitude":44.5920997601706,"longitude":16.9713411095354},{"name":"SP (NW) Borci_Bugojno","latitude":44.5532,"longitude":17.49},{"name":"SP (SW-W) Čemernica","latitude":44.5213121827912,"longitude":17.2131193705589},{"name":"SP (NE-ENE) Ocaus","latitude":44.5080191989406,"longitude":17.6380779371398},{"name":"SP (NE-NNE) Klekovaca","latitude":44.4314114453016,"longitude":16.5071697792834},{"name":"SP (NE) Lisina_Mrkonjic Grad","latitude":44.3951469430205,"longitude":17.0450136559516},{"name":"SP (NW-SW) Velika Strazbenica","latitude":44.3916529317973,"longitude":16.4271076714402},{"name":"SP (N-NE) Sinjakovo 1","latitude":44.348808,"longitude":17.133497},{"name":"SP (S-SSW) Sinjakovo 2","latitude":44.3475562171763,"longitude":17.133037246836},{"name":"SP (S-SE) Vlasic (Vlašić)_Travnik 1","latitude":44.2748288203193,"longitude":17.6041627561145},{"name":"SP (SW-SE) Vlasic (Vlašić)_Galica_Travnik 2","latitude":44.2680560620595,"longitude":17.5955316993518},{"name":"SP (S-E) Lisac_Zenica","latitude":44.266155744219,"longitude":17.851272515412},{"name":"SP (SW-S) Smetovi","latitude":44.2443468193603,"longitude":17.9592092780488},{"name":"SP (N-NE) Gornja Zenica","latitude":44.1807987066092,"longitude":17.9138387703778},{"name":"SP (S) Perun","latitude":44.12341684015,"longitude":18.2748844177192},{"name":"SP (NE) Garacici_Poletište","latitude":44.0340425335959,"longitude":17.4134595197291},{"name":"SP (W) Breza","latitude":44.0324479242154,"longitude":18.2945039645102},{"name":"SP (ENE) Kupres_Stozer","latitude":43.9912866964198,"longitude":17.3219686857528},{"name":"SP (W, SW) Kupres_Stozer","latitude":43.9892837365466,"longitude":17.3179949150453},{"name":"SP (NW-W) Pyramid_Visoko","latitude":43.9772,"longitude":18.1758},{"name":"SP (NNE) Kupres_Stozer low","latitude":43.9601344773823,"longitude":17.2791188621173},{"name":"SP (E) Kupres_Adria Ski","latitude":43.9534096592306,"longitude":17.1628799628783},{"name":"SP (SW) Gornji Vakuf_Vranica","latitude":43.9507833830242,"longitude":17.6260007247955},{"name":"SP (E-NE) Bosch Pumpa","latitude":43.9429353377665,"longitude":17.1830807278456},{"name":"SP (SW-SSW) Mrkovici_Barice","latitude":43.9023,"longitude":18.4342666666667},{"name":"SP (W) Romanija","latitude":43.890244997906,"longitude":18.6501077324582},{"name":"SP (NW-NE) Trebevic_Sarajevo","latitude":43.8417253426918,"longitude":18.4539477196886},{"name":"SP (SSW-SW) Bil Hill","latitude":43.8376291513814,"longitude":17.3802036136744},{"name":"SP (SW-W) Trebevic_Sarajevo","latitude":43.8246197882227,"longitude":18.4431961616354},{"name":"SP (S-SW) Trebevic_Sarajevo","latitude":43.818717,"longitude":18.45635},{"name":"SP (NE-E) Igman_Sarajevo","latitude":43.7981702397916,"longitude":18.2858261725266},{"name":"SP (S) Jelinovac","latitude":43.7531561929676,"longitude":17.1625213928746},{"name":"SP (NW-N) Tusnica (Tušnica)","latitude":43.722691536257,"longitude":17.0934510002708},{"name":"SP (S) Tusnica (Tušnica)","latitude":43.7204901920758,"longitude":17.0965475149713},{"name":"SP (N-NE) Jahorina","latitude":43.7182166666667,"longitude":18.58215},{"name":"SP (S) Stipanjici","latitude":43.7154933026519,"longitude":17.1554720402029},{"name":"SP (N-NE) Sarajevo-Bjelašnica_Trosjed","latitude":43.71111111,"longitude":18.26972222},{"name":"SP (NE-E) Bjelašnica_Medjustanica","latitude":43.706918857824,"longitude":18.2641214336495},{"name":"SP (NE) Bjelašnica","latitude":43.704,"longitude":18.257},{"name":"SP (S) Bjelašnica_Observatory","latitude":43.7027149771481,"longitude":18.2590243418857},{"name":"SP (S-SE) Bjelasnica_","latitude":43.6891,"longitude":18.2648166666667},{"name":"SP (SW) Lib","latitude":43.6503570999876,"longitude":17.3114276071778},{"name":"SP (SW) Lib 2","latitude":43.6349515884797,"longitude":17.3146097987211},{"name":"SP (SW-SE) Blidinje","latitude":43.6159098068369,"longitude":17.4928323537205},{"name":"SP (S-SSW) Biljaca_Rakitno","latitude":43.5514262050304,"longitude":17.4610445695449},{"name":"SP (SW) Kocerin","latitude":43.4047,"longitude":17.4514},{"name":"SP (SE) Mostar_Planinica","latitude":43.3777501720188,"longitude":17.782996868226},{"name":"SP (SW-W) Mostar_Planinica","latitude":43.3747794931309,"longitude":17.7716458882376},{"name":"SP (N) Velež Sjever","latitude":43.3598562439751,"longitude":17.9220044747173},{"name":"SP (WSW-SW) Pogled","latitude":43.3560602257931,"longitude":17.932314601674},{"name":"SP (NW-NE) Fortica","latitude":43.3535589062359,"longitude":17.8316140765922},{"name":"SPW (all) Mostarsko blato","latitude":43.3282325005729,"longitude":17.708830895745},{"name":"SP (SW-W) Hum_Mostar","latitude":43.3215169393247,"longitude":17.8074294791111},{"name":"SP (S-SW, N-NE) Ljubuski_Radisici","latitude":43.2173227238767,"longitude":17.5281247467074},{"name":"SP (S-SW) Ljubuski","latitude":43.2149186145633,"longitude":17.5356413895468},{"name":"SP (SW-SSW) Berkovici","latitude":43.1123018514997,"longitude":18.1781228391716},{"name":"SP (SW) Gljiva_Leotar","latitude":42.7351630777319,"longitude":18.3738989239464},{"name":"SP (S-SSW) Hercegovacka gudura","latitude":42.7266249241291,"longitude":18.2963598440933},{"name":"SP (N) Popina","latitude":44.1154,"longitude":26.939},{"name":"SPW (NE, SW) Letishte Shtraklevo (Ruse)_летище Щръклево","latitude":43.6924739455062,"longitude":26.0518333778146},{"name":"SPW (NNW, SSE) Dobrich airport","latitude":43.6064,"longitude":27.8382},{"name":"SP (NE-E) Miladinovci","latitude":43.602346746216,"longitude":27.6112200720879},{"name":"SP (WNW-SW) Kostandenets_Kostandenec_Костанденец: ЮЗ","latitude":43.5608,"longitude":26.2157},{"name":"SP (S) Kostandenets_Kostandenec","latitude":43.560164578038,"longitude":26.217748480948},{"name":"SPW (WNW, ESE) Gabrovnitsa Airport","latitude":43.5448267102799,"longitude":23.2709463140944},{"name":"SP (SSE) Chilnov","latitude":43.5385307630008,"longitude":25.9080807218007},{"name":"SP (S-SSW) Katselovo","latitude":43.5324850280894,"longitude":26.0461609872032},{"name":"SP (E) Odrintsii (Odrinci)","latitude":43.5186335751888,"longitude":27.70096155704},{"name":"SP (W-SW) Botevo","latitude":43.4362,"longitude":27.7167},{"name":"SP (W-WNW) Montana_Pastrina (Pustrina)_Пъстрина: СЗ","latitude":43.4264657221818,"longitude":23.3033591594606},{"name":"SP (N-NNE, SE) Pastrina_Pustrina_Dolna Verenitsa_Verenishko Bardo (Burdo)","latitude":43.4232804735006,"longitude":23.1502608898244},{"name":"SP (SW) Verenishko Bardo","latitude":43.4222166666667,"longitude":23.1450833333333},{"name":"SP (W-SW) Obrochishte_Оброчище: ЮЗ","latitude":43.4150076633621,"longitude":28.0633639453755},{"name":"SPK (S) Kavarna_Topola_Globul Spot_Топола: Ю","latitude":43.412248444434,"longitude":28.2568098701251},{"name":"SP (SW) Stoyan Mihalyovski","latitude":43.4109989301927,"longitude":27.2054663663987},{"name":"SP (SE-SSW) Palmartsa_Gary's Hill","latitude":43.4003793570395,"longitude":26.1379124247675},{"name":"SPK (SE-ESE) Albena_Албена: ЮИ-И","latitude":43.3779671620671,"longitude":28.0927218324335},{"name":"SP (S-SW) Stanata_Нови Пазар-Стана","latitude":43.372149657053,"longitude":27.237417594602},{"name":"SP (SE-E) Rogachevo_Рогачево: И","latitude":43.3657756905712,"longitude":28.0155928271147},{"name":"SP (SW) Polski Trumbesh_Каранци","latitude":43.3626254909157,"longitude":25.6781333036583},{"name":"SP (SW-SE) Mogilata_Могилата","latitude":43.3548358390457,"longitude":26.971764222356},{"name":"SP (SSW) Veslec","latitude":43.354817444066,"longitude":23.7411033725524},{"name":"SP (W) Klimentovo","latitude":43.354193071154,"longitude":25.6178417228321},{"name":"SPK (E-SE) Kranevo","latitude":43.3244142754308,"longitude":28.0630115508189},{"name":"SP (N-NNE) Gradishte","latitude":43.3181659321,"longitude":26.835423568101},{"name":"SP (WNW) Suvorovo","latitude":43.3036228039211,"longitude":27.6312251938012},{"name":"SP (S-SW) Sevsha South","latitude":43.2921647255577,"longitude":27.309593921385},{"name":"SP (NW-W) Madara_Кочово: С-СЗ, З","latitude":43.2820924378628,"longitude":27.1201237998025},{"name":"SP (SW-SSW) Kipra","latitude":43.2683361797734,"longitude":27.6215153806076},{"name":"SP (NE-E) Nevcha_Nevsha_Невша: СИ","latitude":43.2634460347571,"longitude":27.2838242811901},{"name":"SP (N-NE) Shumen N_Шумен: С","latitude":43.2626179660502,"longitude":26.9210643001586},{"name":"SP (NE-ESE) Shumen_Шумен","latitude":43.2583633856225,"longitude":26.9266070442657},{"name":"SP (E) Reselets","latitude":43.252,"longitude":24.031},{"name":"SP (S-SE) Shumen S_Шумен","latitude":43.2513705193827,"longitude":26.9254907568823},{"name":"SP (NE-NNE) Venchan","latitude":43.2427808663345,"longitude":27.374898036027},{"name":"SP (S-SW) Lesicheri","latitude":43.2313,"longitude":25.4255},{"name":"SP (S) Troica_Троица","latitude":43.2231739878009,"longitude":26.8744483890878},{"name":"SP (SSW-S) Kalen_Кален","latitude":43.2138577053486,"longitude":23.8292979734545},{"name":"SP (NE) Devnia (Devnya)_Девня","latitude":43.2129794727088,"longitude":27.5487164367801},{"name":"SPK (SE) Varna/Horizont_Варна/Хоризонт: Ю-ЮИ","latitude":43.2098341991124,"longitude":27.9386192695612},{"name":"SP (E-SE) Provadia_Provadiya","latitude":43.2082335845736,"longitude":27.4156617784301},{"name":"SP (SE-S) Ledenica_Carkvishte_alternative","latitude":43.1964353690188,"longitude":23.5004358925118},{"name":"SP (SW-SE) Kunino","latitude":43.19,"longitude":24.008},{"name":"SP (E) Kom_Berkovitsa","latitude":43.1800813203321,"longitude":23.0944293720795},{"name":"SP (SW) Ledenica_Carkvishte","latitude":43.1795346188316,"longitude":23.4706831725383},{"name":"SPK (N-NNE) Galata","latitude":43.1722632838032,"longitude":27.9265570918008},{"name":"SP (NNW-W) Razdelna_Petricha_Разделна","latitude":43.1631459572877,"longitude":27.6443302727955},{"name":"SP (NE-E) Vratza (Vraca)_Okloltchitza (Okolchica)_Околчица: СИ-И","latitude":43.1524994184359,"longitude":23.584846669497},{"name":"SP-HG (NE-E) Vratza (Vraca)_Okloltchitza (Okolchica)_Околчица","latitude":43.1522486641461,"longitude":23.5862434470085},{"name":"SP (S) Mount Parshevitsa_връх Пършевица","latitude":43.1355567639001,"longitude":23.4340253955624},{"name":"SP (N) The rock_Obreshkovs_Камъка","latitude":43.1239444927822,"longitude":25.6583050578318},{"name":"SPK (E-ESE) Chernomorec_Черноморец","latitude":43.1238189338738,"longitude":27.9288088874712},{"name":"SP (NW-W) Dyrmanci_Darmantsi_Дърманци","latitude":43.1181,"longitude":23.7186},{"name":"SP (E) Bozvelysko (Bozveliysko)","latitude":43.0965581327826,"longitude":27.4473351925126},{"name":"SP (E-SE) Liaskovec (Lyaskovets)_Лясковец","latitude":43.0925947192727,"longitude":25.7062218678963},{"name":"SP (SW-S) Krushevo_Крушево: Ю","latitude":43.0511,"longitude":25.1782},{"name":"SP (E-SE) Lukovit_Dragonitsa_Ябланица","latitude":43.0355329202701,"longitude":24.0562283549919},{"name":"SP (NE-NW) Partizani_Партизани: С-СЗ","latitude":42.9886039057297,"longitude":27.2091524881073},{"name":"SP (NW-N) Skalsko_Скалско: С-СЗ","latitude":42.9651114674739,"longitude":25.3785805214296},{"name":"SP (SE-SW) Chepan_ЧЕПАН","latitude":42.9441858341657,"longitude":22.9743165308444},{"name":"SP (W, SE, E) Tetewen_Cherven_вр.Червен: ЮИ-Ю-З","latitude":42.9363962561481,"longitude":24.2888805903698},{"name":"SP (SSW) Karavelyovo_Каравельово","latitude":42.9360690962803,"longitude":27.1455572825201},{"name":"SP (S-SSE) Golica (Golitsa)","latitude":42.9326127942139,"longitude":27.5694888171085},{"name":"SP (NE-ENE) Razliv_Разлив","latitude":42.9318872236151,"longitude":23.8944370655652},{"name":"SP (NW) Kotel_Urushkite Skali","latitude":42.9239890413338,"longitude":26.4597601271774},{"name":"SP (N-NNW) Kotel 2","latitude":42.9087397768964,"longitude":26.4106593510243},{"name":"SP (S-SSE) s. Kamchia","latitude":42.8997921512594,"longitude":26.9946176108813},{"name":"SP (E) Ostrets_Острец","latitude":42.8797216256576,"longitude":25.8912688505466},{"name":"SP (N-NE) Beklemeto (North)","latitude":42.7736,"longitude":24.6309},{"name":"SP (S-SW) Svishti Plaz_вр. Свищи Плаз","latitude":42.7647026561218,"longitude":24.1125456724581},{"name":"SP (W-NW) Bekleme NW_Сиврия: СЗ","latitude":42.761344223368,"longitude":24.6248464494189},{"name":"SP (SW-SE) Topolica (Topolitsa_Topolitza_Тополица)","latitude":42.7503942586506,"longitude":27.1371650841723},{"name":"SP (SW-SE) Shipka_top","latitude":42.7478492794006,"longitude":25.3229621709269},{"name":"SP (SW-SE) Beklemoto (Bekleme)_Christo Danowo_Беклеме: И-Ю-З","latitude":42.7420534865847,"longitude":24.6125879307805},{"name":"SPK (E-ENE) Irakli_Иракли - ИСИ","latitude":42.7419534571697,"longitude":27.8895473661795},{"name":"SP (SE-SW) Shipka_Шипка: Ю","latitude":42.7365256827736,"longitude":25.3214016884077},{"name":"SP (SW) Stargel","latitude":42.7363209802789,"longitude":23.8904500964397},{"name":"SP (S-SE) Zlatitca_Zlatitsa_Златица","latitude":42.7326053455142,"longitude":24.0911442538489},{"name":"SP (S) Sliven_Balgarka","latitude":42.7324357087833,"longitude":26.324262743318},{"name":"SP (SW) Vortex_Въртопа: ЮЮЗ","latitude":42.7281603160882,"longitude":24.3599029607739},{"name":"SP (E-S) Korudzha_Коруджа","latitude":42.7230656669984,"longitude":25.2578237653856},{"name":"SP (SE-SW) Chakalitsa_Чакалица: И-Ю-З","latitude":42.7190642821356,"longitude":25.9543088818203},{"name":"SP (SW-W) Sliven_Karandila","latitude":42.7150632093315,"longitude":26.3615542139926},{"name":"SP (E-SE) Sliven_Karandila alternative","latitude":42.714935099573,"longitude":26.3755457453492},{"name":"SP (E-ENE) Rasnik_Расник","latitude":42.7146902012158,"longitude":22.9864006853365},{"name":"SP (SW-SE) Peak Botwv_връх Ботев-Takeoff","latitude":42.7145448072522,"longitude":24.9189270100374},{"name":"SP (SW-WSW) Buzludzha (Tonzos)_Тонзос: Ю-ЮЗ","latitude":42.7122958731372,"longitude":25.3842558371068},{"name":"SP (SSW-E) Rasnik_Расник","latitude":42.7101133854172,"longitude":22.9873256747288},{"name":"SP (SSW-SW) Buzludja (Tonzos)_Бузлуджа (Тонзос)_lower","latitude":42.7041277068068,"longitude":25.3801454030725},{"name":"SP (S-SE) Kalofer_Panitsite_Паниците","latitude":42.6962517905964,"longitude":24.9814867686528},{"name":"SP (W-SW, E-SE) Sliven_Sinilka_Синилка: З","latitude":42.6959764972918,"longitude":26.4390268510329},{"name":"SP (ESE-WSW) Sopot_Stara Planina_Сопот","latitude":42.6876446335118,"longitude":24.7502195315199},{"name":"SP (NNE-NE) Medovo_Медово: СИ","latitude":42.6832407645238,"longitude":27.5723294597991},{"name":"SP (S) Sliven_Sinilka_Синилка: Ю (low)","latitude":42.6825799702951,"longitude":26.436447243818},{"name":"SP (SE) Sarayar_Саръяр","latitude":42.6824844353512,"longitude":25.4581259207818},{"name":"SP (WNW) Pirdop_Пирдоп","latitude":42.6818020063633,"longitude":24.1571461077091},{"name":"SP (SSE-SW) Ravni vrah","latitude":42.6753137823071,"longitude":24.9057000037956},{"name":"SP (SE-SW) Bardoto_Сопот/Бърдото: И-Ю-З","latitude":42.6744673202263,"longitude":24.7626353814386},{"name":"SP (SW-SE) Sopot_Govedarnata_Сопот/Говедарната: ЮИ-Ю-З","latitude":42.6682157704754,"longitude":24.7744430778709},{"name":"SP (E-ESE) Biberna_Kableshkovo_Биберна/Каблешково: ИЮИ","latitude":42.6672982612479,"longitude":27.5798161243895},{"name":"SP (SW-S) Ravnec_Хижа Ражнец","latitude":42.6634582285023,"longitude":24.8317607031528},{"name":"SP (N) Karnobat_Карнобат","latitude":42.6449897033738,"longitude":27.0099966884484},{"name":"SP (SE) Tritr Sestri_Трите сестри","latitude":42.6424196,"longitude":27.3938083},{"name":"SP (NW) Sofia_Kopitoto_Копитото","latitude":42.637276692425,"longitude":23.2420059297919},{"name":"SP (WSW-SW) Banewo_Банево","latitude":42.635632,"longitude":27.4064898},{"name":"SP (NW) Vitanovtsi_Vitanovci_Витановци: СЗ","latitude":42.6352,"longitude":22.9853},{"name":"SP (NW) Balgarovo_Българово","latitude":42.6295541,"longitude":27.2993302},{"name":"SP (NE-E) Sofia_Goli Vrah_Kominite_Vitosha_Витоша/Комините: СИ","latitude":42.6005317870832,"longitude":23.284201745562},{"name":"SP (WNW, NE) Voynagovo_Tzarkvishte_Войнягово/Църквище","latitude":42.5796811227939,"longitude":24.7164086539721},{"name":"SPW (WNW) Marino Pole_Марино поле","latitude":42.5795,"longitude":24.8693},{"name":"SP (E) Rezniovete_Резньовете - Запад","latitude":42.5721868664673,"longitude":23.2899100167197},{"name":"SP (W-NW) Rezniovete_Резньовете - Запад","latitude":42.5716371327599,"longitude":23.2868143435923},{"name":"SP (NNE) Kapral_Капраля","latitude":42.5707231447592,"longitude":23.3548948967119},{"name":"SPK (SE-ESE) Solnitsite_Солниците","latitude":42.553507,"longitude":27.5092935},{"name":"SP (NE) Kamen_Panaretovo_Панаретовци","latitude":42.5495508521404,"longitude":26.3080378965859},{"name":"SP (NE) Panaretovtsi_Glufishevo_Глуфишево","latitude":42.5321126866381,"longitude":26.3229904012869},{"name":"SP (S-SW) Hisar_Хисар: Ю","latitude":42.5223441780423,"longitude":24.7333519471413},{"name":"SPK (E) Burgas-Sea Garden_Бургас-Морската градина","latitude":42.4963470943489,"longitude":27.4831245819158},{"name":"SP (NNE-NW) Stefanovo","latitude":42.4767979256293,"longitude":23.0330960027608},{"name":"SP (WNW-NW) Schiloto_Шилото","latitude":42.457017,"longitude":27.379017},{"name":"SPK (ENE-NE) Kraymorie_Крайморие","latitude":42.45337,"longitude":27.484467},{"name":"SP (N-NNW) Bakadjik_Бакаджика","latitude":42.4512348072737,"longitude":26.6459255972508},{"name":"SP (SW-SSW) Bakadjik_Бакаджика","latitude":42.4459232297235,"longitude":26.6452118864353},{"name":"SP (W) Продановски рид","latitude":42.3764,"longitude":23.5213},{"name":"SP (W-SSW) Konyavo_Koniavo_Коняво: И-Ю-З","latitude":42.3448,"longitude":22.8378},{"name":"SP (S-SW) Konyavo alternative","latitude":42.342,"longitude":22.84},{"name":"SP (SW) Veselie (Wesselie)_Веселие","latitude":42.3294143,"longitude":27.6350269},{"name":"SPW (WSW, ENE) Dupnitsa Airport_Stanke Dimitrov_летище Крайници","latitude":42.3112149678894,"longitude":23.2458164398116},{"name":"SP (NNW) Rido","latitude":42.282,"longitude":23.2007},{"name":"SP (NW) Bekyaro ski run","latitude":42.2661,"longitude":23.2964},{"name":"SP (S-SE) Sveti Iliya_Свети  Илия  ЮИ-И-ю-юз","latitude":42.263412984892,"longitude":23.4520915897016},{"name":"SP (NW, NE) Borovec - Sitniakovo 2","latitude":42.2562434493959,"longitude":23.6065404225534},{"name":"SP (NNW-NW) Iglika_Иглика_Osogovo_Kyustendil (Kjustendil)","latitude":42.2417854259394,"longitude":22.6562133153169},{"name":"SP (N, NE) Borovec - Sitniakovo","latitude":42.2394030115684,"longitude":23.5876796553417},{"name":"SP (N) Yastrebetc_Ястребец Долния старт","latitude":42.2367769904104,"longitude":23.5877752765322},{"name":"SP (NE-E) Yastrebec_Ястребец","latitude":42.2294754125263,"longitude":23.5848320300596},{"name":"SP (NW-WNW) Yastrebec_Ястребец","latitude":42.2274363595155,"longitude":23.5814534146215},{"name":"SP (NE) Gledkata","latitude":42.2232444182014,"longitude":23.1394549618932},{"name":"SP (W-SW) Govedarnika","latitude":42.2216861340737,"longitude":23.1627590941991},{"name":"SP (E-ENE) Rila Mountains_7 lakes_Седемте езера","latitude":42.2168469268434,"longitude":23.3158265108031},{"name":"SP (N-NNW) Cherni Vrah","latitude":42.2154,"longitude":23.2335},{"name":"SP (E) Borovec_Markudjik 2_Маркуджик 2: З-С-СИ","latitude":42.2136225719,"longitude":23.5768179816148},{"name":"SP (W) Borovec_Markudjik 1_Маркуджик 1: З-С-СИ","latitude":42.2132121099479,"longitude":23.5760961152773},{"name":"SP (NW-W) Tash Tepe_Таш Тепе","latitude":42.2088637853358,"longitude":22.5023576552984},{"name":"SP (NW) Ръждавица  С-СЗ","latitude":42.2056756357823,"longitude":23.3948385637576},{"name":"SP (NW-NNW) Mechit_Мечит","latitude":42.2026403582923,"longitude":23.4708988353294},{"name":"SP (SSW-N) Bej Bunar_Жълт кладенец: с-СЗ-з-юз-ю","latitude":42.1944804110801,"longitude":23.1456354631888},{"name":"SP (N-NNE) Rila Mountains_7 lakes_N launch","latitude":42.194157488274,"longitude":23.3121839685768},{"name":"SP (SE, N) Belmeken","latitude":42.1789771758871,"longitude":23.7730722513671},{"name":"SP (SSW-SSE) Kalin_Rila Mountain_Калин - ЮЗ","latitude":42.1728675724818,"longitude":23.2350556057621},{"name":"SP (S-SE) Kalin_Калин","latitude":42.1709075029188,"longitude":23.2602327148423},{"name":"SP (S-SE) Kalin_7 lakes of Rila_Калин: ЮИ-Ю-ЮЗ","latitude":42.1680243469789,"longitude":23.2485491647281},{"name":"SP (SW) Robovitsa","latitude":42.161682438834,"longitude":23.1606771360738},{"name":"SP (NNE-NE, SSW-SW) Rouen_Ruen_Boboshevo","latitude":42.1595,"longitude":22.9648},{"name":"SP (NE) Krusta","latitude":42.1566,"longitude":22.9893},{"name":"SP (SE) Marina Vapa_Марина Вапа: S-SE","latitude":42.1345566351614,"longitude":23.6479875511016},{"name":"SP (SE) Ovcharets_Овчарец: E-S-W","latitude":42.1330507880671,"longitude":23.5912803659128},{"name":"SP (S-SSW) Milevi Skali","latitude":42.1256009193355,"longitude":24.059483963634},{"name":"SP (NE) Delfin_к-г Делфин","latitude":42.1072174,"longitude":27.9184699},{"name":"SP (NE) Водна кула","latitude":42.1047918285786,"longitude":24.2787592914823},{"name":"SP (SW-NNW) Isperihovo_Novo Selo_Ново Село: И, СЗ-З","latitude":42.090475133192,"longitude":24.4654525150805},{"name":"SP (NW-WNW) Stamboliyski_Brestovica (Brestovitsa)_Брестовица: СЗ","latitude":42.0628,"longitude":24.5889},{"name":"SP (NE-NW) Kaloyan/Markovo_Калоян/Марково: СЗ-С","latitude":42.050136968199,"longitude":24.7095566281499},{"name":"SP (NE) St. Iliya_Св. Илия - СИ","latitude":42.0315612760197,"longitude":24.4463891257561},{"name":"SP (N) Skobelevo_Zhrebichko Orlin_Скобелево-север","latitude":42.0087341993259,"longitude":24.5469743686284},{"name":"SP (NNE) sv Kirik-Asenovgrad","latitude":41.9990970066255,"longitude":24.8445883732488},{"name":"SP (N-NNE) Mosthanets_Moshtanets","latitude":41.9723,"longitude":23.07},{"name":"SP (NW) Tserovo_Blagoevgrad","latitude":41.9613592589959,"longitude":23.1526609060789},{"name":"SP (NE-SE) Dobrostan_Добростан: СИ-И","latitude":41.9095047385913,"longitude":24.9312009314008},{"name":"SP (NNW) Brejani","latitude":41.8483530858539,"longitude":23.1683311370183},{"name":"SP (NW) Calin Valog_Чалин валог СЗ","latitude":41.8004051509533,"longitude":23.4647674086863},{"name":"SP (N-E) Bansko_Todorka_Тодорка","latitude":41.7588033152255,"longitude":23.4361895408768},{"name":"SP (NE) Bezbog_Безбог","latitude":41.7451760324458,"longitude":23.5326199115566},{"name":"SP (NE-E) Bezbog Summit_връх Безбог","latitude":41.7310248790917,"longitude":23.5124258319361},{"name":"SP (S) Илинденци: ЮЗ","latitude":41.7122248685144,"longitude":23.3185646719498},{"name":"SP (SW-S) Ploski","latitude":41.6431239315229,"longitude":23.2562903422985},{"name":"SP (NE) Pamporowo_връх Снежанка","latitude":41.6389142318494,"longitude":24.6838268810791},{"name":"SP (ESE-NE) Orelyak_Orelek","latitude":41.571,"longitude":23.614},{"name":"SP (NNE) Musomishta","latitude":41.5448569647617,"longitude":23.7489160400543},{"name":"SP (NNW) Slavyanka_Shabran peak_вр.Шабран","latitude":41.3800156117432,"longitude":23.6032098581469},{"name":"SP (NW-NNE) Belasitsa_Конгура: З, И","latitude":41.3301020287786,"longitude":23.1735353094088},{"name":"SPK (NW-NNW) Gamle Skagen (Old Skagen)","latitude":57.7264249334875,"longitude":10.516850900598},{"name":"SPK (SE) Skagen_Damsted Klit","latitude":57.70555556,"longitude":10.55416667},{"name":"SPK (NW-NNW) Skiveren","latitude":57.6258533311156,"longitude":10.2931451800044},{"name":"SPK (NW) Hirtshals","latitude":57.5836581504748,"longitude":9.93696222422572},{"name":"SPK (NW) Lönstrup (Lønstrup)_Löntorp","latitude":57.4813914453735,"longitude":9.80366801619719},{"name":"SPK (NW) Lönstrup (Lønstrup)","latitude":57.4774433447906,"longitude":9.79740911261644},{"name":"SPK (WNW) Lönstrup (Lønstrup) 2","latitude":57.4753415179366,"longitude":9.79472355636262},{"name":"SPW (WNW) Lökken (Løkken)_Ruberg Knude","latitude":57.4496124931872,"longitude":9.77468795008884},{"name":"SPK (WNW) Lökken (Løkken)_Nörre Rubjerg 2","latitude":57.4379824347305,"longitude":9.76569423538362},{"name":"SPK (WNW-NW) Lökken (Løkken)_Nörre Rubjerg 1","latitude":57.4223548578627,"longitude":9.75327399016576},{"name":"SPK (ENE-SE) Frederikshavn","latitude":57.4067781219869,"longitude":10.5168408434472},{"name":"SPK (WNW) Lökken (Løkken)_beach north of Furreby","latitude":57.393801647504,"longitude":9.73058317018166},{"name":"SPK (WNW-NW) Løkken (Lökken)_Kirkevej","latitude":57.3904111460854,"longitude":9.72784390072416},{"name":"SPK (WNW) Lökken (Løkken)_beach Furreby","latitude":57.3842282425111,"longitude":9.72200827517707},{"name":"SPK (N-NNW) Svinklöv (Svinkløv)_Slettestrand_Jammerbugten","latitude":57.1508128103871,"longitude":9.31850676782999},{"name":"SPK (NNW) Svinklöv (Svinkløv) 1_Svinklovene","latitude":57.1478,"longitude":9.2989},{"name":"SP (NNW) Fosdalen","latitude":57.1396725302306,"longitude":9.43667188491731},{"name":"SPK (N-NE) Hanstholm_Hamborg","latitude":57.1153583901337,"longitude":8.66087310208457},{"name":"SPK (N-NNE) Hanstholm Camping","latitude":57.113892737612,"longitude":8.66914053061754},{"name":"SPK (NNE) Vigsö (Vigsø)","latitude":57.0975038515815,"longitude":8.72404468975082},{"name":"SPK (NW) Klitmøller (Klitmöller) Dune","latitude":57.0505657139302,"longitude":8.51040302544682},{"name":"SPK (NW-WNW) Nörre Vorupoer (Nørre Vorupør)","latitude":56.9596910821749,"longitude":8.37310012869937},{"name":"SPW (W, E) Hestehaven (Svenstrup J)_Ferslev","latitude":56.9449083333333,"longitude":9.93507625054734},{"name":"SPK (NE) Ejerslev_Hesselbjerg Northeast","latitude":56.9407521092206,"longitude":8.90937732585923},{"name":"SPK (E-ENE) Ejerslev Havn","latitude":56.9343105744536,"longitude":8.91164826508472},{"name":"SPK (E-NE) Näsby_Naesby 2","latitude":56.9076442190513,"longitude":9.1746841682576},{"name":"SPK (E) Dokkedal","latitude":56.9034920654077,"longitude":10.2606680362623},{"name":"SPK (WNW) Näsby (Naesby) 1","latitude":56.9019270903176,"longitude":9.17190412530505},{"name":"SPK (NW-NNW) Salgjerhøj_Skibsted","latitude":56.8988339874207,"longitude":8.78194523857189},{"name":"SPW (NE, SW) Rönbjerg (Rønbjerg)","latitude":56.896801493056,"longitude":9.18228719994133},{"name":"SPK (NW) Hanklit_top","latitude":56.895592038045,"longitude":8.75245308533331},{"name":"SPK (NW) Hanklit_lower","latitude":56.8938307090095,"longitude":8.74920770619678},{"name":"SPK (SW) Rönbjerg (Rønbjerg)","latitude":56.8859548956482,"longitude":9.16897925626041},{"name":"SPK (WNW) Lyngby Strand","latitude":56.878479561844,"longitude":8.29121036567618},{"name":"SPW (W-WNW, E-ESE) Skivum","latitude":56.8675,"longitude":9.60166666666667},{"name":"SPK (N) Fur Nord","latitude":56.8463524822839,"longitude":9.03917701539658},{"name":"SPK (NNW) Fur_Store Knudshoved  2","latitude":56.8386565949278,"longitude":8.97759438615036},{"name":"SPK (NW-NNW) Fur_Store Knudshoved 1","latitude":56.8374174002844,"longitude":8.96003222667829},{"name":"SPK (WNW) Agger_Lodbjerg Fyr 2","latitude":56.8275659571565,"longitude":8.25328280849351},{"name":"SPK (WSW) Fur_Anshede","latitude":56.8228869547937,"longitude":8.97035596029608},{"name":"SPK (NW) Ertebölle (Ertebølle) 2","latitude":56.8185237811266,"longitude":9.1851718728763},{"name":"SPK (NW-NNW) Ertebölle (Ertebølle) 1","latitude":56.8107913951673,"longitude":9.17486158944046},{"name":"SPK (WNW) Agger-Lodbjerg Fyr 1_Porskaer Bakker","latitude":56.8104038236407,"longitude":8.24484291581106},{"name":"SPK (WNW) Ertebölle (Ertebølle) 3","latitude":56.8069159848984,"longitude":9.16928755781673},{"name":"SPK (NNE) Eskov","latitude":56.7917175851684,"longitude":9.09429792801568},{"name":"SPK (SW) Krig Vig 1_Kobberö","latitude":56.7165898278983,"longitude":8.31781140460849},{"name":"xxx SPK (SW-W) Krig Vig_Helligsø Teglværk","latitude":56.6964373813662,"longitude":8.34119025989072},{"name":"SPK (SSE) Lovns (Louns)_Store Ramshule","latitude":56.6788294195188,"longitude":9.20915508940199},{"name":"SPK (SW-W) Lovns (Louns)_Melbjerg Hoved","latitude":56.6721651133439,"longitude":9.16406649826838},{"name":"SPK (WNW) Knud strand","latitude":56.6592383659664,"longitude":8.77737014410853},{"name":"SPK (W-WNW) Store Klinthøj","latitude":56.6297554296437,"longitude":9.313978991813},{"name":"SPK (WNW-W) Ulbjerg Klint","latitude":56.6233822302227,"longitude":9.31433644230141},{"name":"SPK (W-SW) Odby","latitude":56.6068041024042,"longitude":8.5039328959712},{"name":"SPK (S) Serup","latitude":56.6007399392725,"longitude":8.57343404423452},{"name":"SPK (SW) Gyldendal","latitude":56.5787874342666,"longitude":8.71642984157589},{"name":"SPK (NW) Venø_Venö North","latitude":56.5775663845032,"longitude":8.63637417605974},{"name":"SPK (WNW-NW) Venø By_Venö Borg","latitude":56.5685133511819,"longitude":8.62832146998566},{"name":"SPK (WNW) Vejlby Klit","latitude":56.5674099223606,"longitude":8.12914065227566},{"name":"SPK (NE) Remmer Strand","latitude":56.5666104475601,"longitude":8.43737149284712},{"name":"SPK (WNW-NW) Toftum Bjerge_Dunes","latitude":56.5607844452328,"longitude":8.55367028546089},{"name":"SPK (WNW-NNW) Toftum Bjerge","latitude":56.5456348420248,"longitude":8.53272245617702},{"name":"SPK (NE) Humlum Fiskerleje","latitude":56.5413398481296,"longitude":8.57735291584768},{"name":"SPK (W-WSW) Venø (Venö)_Firbjergsande","latitude":56.539924191801,"longitude":8.6221819218856},{"name":"SPK (NW-WNW) Ejsingholm 2_Nygaard Hage","latitude":56.534481178925,"longitude":8.74041462366597},{"name":"SPK (W) Bovbjerg_Ferring","latitude":56.5244621634091,"longitude":8.11809187216306},{"name":"SPK (WSW-W) Ejsingholm 1","latitude":56.5244579373994,"longitude":8.73863506480976},{"name":"SPK (W) Bovbjerg_Ferring","latitude":56.5242285475937,"longitude":8.1171581723004},{"name":"SPK (NE) Bremdal","latitude":56.5205760152956,"longitude":8.6010785183948},{"name":"SPK (ENE-NE) Gjerrild Klint 1_Gjerrild Strand","latitude":56.5191336107666,"longitude":10.856146381231},{"name":"SPK (W) Bovbjerg Lighthouse","latitude":56.5134523243753,"longitude":8.11790097496483},{"name":"SPK (E-ENE) Gjerrild Klint 2","latitude":56.5048551737797,"longitude":10.867902103532},{"name":"SPK (W) Ferring_Trans Kerke","latitude":56.4982682710874,"longitude":8.12058540717402},{"name":"SPK (NE) Sangstrup Klint","latitude":56.481170208736,"longitude":10.8963262593678},{"name":"SPK (W) Fjaltring","latitude":56.4705644677514,"longitude":8.12615225101298},{"name":"SPW (WSW, ENE) Lindtorp","latitude":56.396350260367,"longitude":8.44220718076287},{"name":"SPK (W) Thorsminde northbounds","latitude":56.3738134412228,"longitude":8.11721222938021},{"name":"SPK (W) Bjerghuse","latitude":56.3211943389783,"longitude":8.12188962577779},{"name":"SPW (SSW, NNE) Nr. Felding","latitude":56.3092468986618,"longitude":8.58868979137097},{"name":"SPK (E-SE) Glatved Strand","latitude":56.3041914909568,"longitude":10.8645111269201},{"name":"SPK (W) Husby Klit 2_Vester Husby","latitude":56.290300412699,"longitude":8.12634952554438},{"name":"SPK (W) Husby Klit 1_Vedersö (Vedersø Klit)","latitude":56.2576050332488,"longitude":8.13083047826996},{"name":"SPK (S-SSE) Jernhatten Strand_Holme","latitude":56.2448627444596,"longitude":10.7870266047521},{"name":"SPK (NNW) Dejret","latitude":56.2048143033391,"longitude":10.3916601279176},{"name":"SPK (E) Ebeltoft_Kobberhage 2","latitude":56.1866989202621,"longitude":10.7366181539364},{"name":"SPK (SE) Fuglsø_Fuglsö","latitude":56.1835868714902,"longitude":10.5446613004517},{"name":"SPK (SE) Fuglsö (Fuglsø)_Strand","latitude":56.1822893427419,"longitude":10.5419470602229},{"name":"SPK (ENE-ESE) Ebeltoft_Kobberhage 1","latitude":56.1801612635903,"longitude":10.7387050212012},{"name":"SPK (SW-SSW) Strands","latitude":56.1748771913022,"longitude":10.4849348035822},{"name":"SPK (ESE) Ebeltoft_Elsegarde_Blushøj Camping","latitude":56.1687348824163,"longitude":10.7333972215218},{"name":"SPK (S-SSW) Mols Hoved","latitude":56.1626096776396,"longitude":10.4054694690274},{"name":"SPK (SW) Ebeltoft_Oer Strand","latitude":56.1618745137692,"longitude":10.6587490621466},{"name":"SPK (WNW) Fejrup (Dommer skrænten)","latitude":56.1416894285776,"longitude":10.4841918828737},{"name":"SPK (ENE) Arhus_Hotel Marselis","latitude":56.1272890546834,"longitude":10.2145318161538},{"name":"SPK (N-NW) Gilleleje alternative","latitude":56.1258382445373,"longitude":12.2663004183854},{"name":"SPK (W-WSW) Fejrup","latitude":56.1247597539283,"longitude":10.4919730145236},{"name":"SPK (NNW) Gilleleje Feriecenter_Gilbjerg Hoved","latitude":56.1246712210277,"longitude":12.2611937497554},{"name":"SPK (N-ENE) Gilleleje_Nakkehoved Fyr 1","latitude":56.121585,"longitude":12.3241648701267},{"name":"SPK (N-ENE) Gilleleje_Nakkehoved Fyr 2","latitude":56.1196438770547,"longitude":12.3487980550487},{"name":"SPK (WNW) Söndervig (Søndervig)","latitude":56.1185321442705,"longitude":8.10882779278691},{"name":"SPK (WSW) Örby (Ørby)_Helgenes","latitude":56.110130519119,"longitude":10.5021891620427},{"name":"SPW Silkeborg - Christianshede","latitude":56.105,"longitude":9.39305555555556},{"name":"SPK (SSE-SE) Helgenaes_Klaebjerg","latitude":56.1029940036808,"longitude":10.5412858856467},{"name":"SPK (SE) Helgenaes_Lushage_Sletterhage","latitude":56.10083333,"longitude":10.53166667},{"name":"SPK (NW-NNW) Strandbjerggård_Rågeleje","latitude":56.0965660242489,"longitude":12.1553348575433},{"name":"SPK (ENE-E) Abelshoved_Moesgård Strand","latitude":56.0933588950525,"longitude":10.247611816087},{"name":"SPK (NW-NNW) Heatherhill (Heather Hill)_Rageleje","latitude":56.0925776534543,"longitude":12.1480705059742},{"name":"SPK (NW) Tisvilde_Tisvildeleje","latitude":56.0601906144271,"longitude":12.0686674677128},{"name":"SPK (W-WSW) Hvide Sande_Holmsland Klit_Sönder Lyngvig/Nörre Lyngvig","latitude":56.0412372828646,"longitude":8.10004539451459},{"name":"SP (NW) Mossø_Mossö","latitude":56.0287598476927,"longitude":9.82461301760575},{"name":"SPW (SW, NE)  Ejstruphede","latitude":56.0219305555556,"longitude":8.69063004170162},{"name":"SPW (WSW, ENE) Fasterholt optræks center","latitude":56.0031488389185,"longitude":9.09790108838148},{"name":"SPK (WSW) Hvide Sande","latitude":55.9967822469749,"longitude":8.12052145900308},{"name":"SPK (NW) Samsö (Samsø)_Issehoved NV","latitude":55.995281482281,"longitude":10.5482978807275},{"name":"SPK (E) Samsö (Samsø)_Issehoved E_Telegrafbakke","latitude":55.9947537851427,"longitude":10.5610943176296},{"name":"SPK (E) Samsö (Samsø)_Bylykke Skår_Nordby","latitude":55.9815794792991,"longitude":10.564363907536},{"name":"SPK (W) Samsö (Samsø)_Balleskår_Balleberg","latitude":55.9766439217878,"longitude":10.5219036600515},{"name":"SPK (NW) Hundested_Spodsberg Fyr","latitude":55.975002725046,"longitude":11.8533286687934},{"name":"SPK (NNE-NE) Yderby_Sjaellands Odde","latitude":55.9738453821944,"longitude":11.3597051981394},{"name":"SPK (N) Klint_Klintebjerg","latitude":55.9615049223021,"longitude":11.5906996978421},{"name":"SPK (SSW) Søndervang (Söndervang)","latitude":55.9557212902137,"longitude":11.371199183079},{"name":"SPK (WSW) Samsö (Samsø)_Möglskar (Moegelskaer_Møgelskår)","latitude":55.9511617311356,"longitude":10.5276603475681},{"name":"SPK (WSW-W) Holmsland Klit_ Hvide Sande Syd (Argab)","latitude":55.9495320607747,"longitude":8.14261683260064},{"name":"SPK (WSW-SW) Lille Kregme","latitude":55.9386805468413,"longitude":12.0303983223225},{"name":"SPK (SSE) Samsö (Samsø)_Maarup Havn","latitude":55.9383513241017,"longitude":10.5459366416853},{"name":"SPW (W, E) Hammer","latitude":55.9082272972759,"longitude":9.44725024509774},{"name":"SPW (WNW-W, ESE-E) Frederikssund Nord","latitude":55.8531666666667,"longitude":12.0699865454566},{"name":"SP (W-WNW) Lynge Grusgrav","latitude":55.8279,"longitude":12.2978},{"name":"SPK (WSW) Bjerregaard (Bjerregård)_Nymindegab_Bjorne","latitude":55.8266712730605,"longitude":8.16996284778412},{"name":"SPW (WNW, ESE) Ølgod_Ölgod","latitude":55.7927358755642,"longitude":8.58496234536871},{"name":"SPK (W-WSW) Samsö (Samsø)_Grydenæs Odde","latitude":55.7799313425448,"longitude":10.5387323339482},{"name":"SPK (WNW-W) Henne Strand","latitude":55.7453302380859,"longitude":8.17424730151666},{"name":"SPK (N) Røsnæs Rev (Rösnaes Rev)","latitude":55.7427958709239,"longitude":10.8775038129455},{"name":"SPK (WSW) Vellerup Vig","latitude":55.7396284704038,"longitude":11.8555751793848},{"name":"SPK (S-SW) Røsnæs (Rösnaes)_Helles Klint","latitude":55.7295398726913,"longitude":10.9066162995602},{"name":"SPK (S-SW) Ulstrup","latitude":55.7284376502469,"longitude":10.9777219900349},{"name":"SPK (WSW) Rösnaes (Røsnæs)_Kalundborg Golf Club","latitude":55.7174966644709,"longitude":11.0015106894805},{"name":"SPK (WNW-W) Kyndelöse (Kyndeløse)","latitude":55.7151955616645,"longitude":11.8471154682369},{"name":"SPK (SW-WSW) Nostrup Kursuscenter","latitude":55.702191151317,"longitude":11.0186733314494},{"name":"SPK (SW) Myrekaers Huse","latitude":55.6975138892056,"longitude":11.0272820198752},{"name":"SPK (WNW) Börsmose (Børsmose)","latitude":55.6726804378515,"longitude":8.14314639277461},{"name":"SPK (S) Asnaes (Asnæs)_Kalundborg","latitude":55.6571025430755,"longitude":10.9738534620113},{"name":"SPK (ENE-E) Hvidbjerg Vejle","latitude":55.6406713577449,"longitude":9.74364429579234},{"name":"SPK (NW) Vejers Strand_Horns Bjerge","latitude":55.6270705525463,"longitude":8.11889984777322},{"name":"SPK (N) Trelde Klint_Trelde Naes","latitude":55.6247342392719,"longitude":9.84086023726162},{"name":"SPK (W-WNW) Fyns Hoved","latitude":55.6163717270003,"longitude":10.5889872382169},{"name":"SPK (W, SW) Fyns Hoved alternative_small ridges","latitude":55.6131141792511,"longitude":10.5886875138912},{"name":"SPW (W, E) Tølløse_Töllöse","latitude":55.5818626846331,"longitude":11.760153408813},{"name":"SPK (W-WSW) Bjerge Strand","latitude":55.57206954788,"longitude":11.1557768693154},{"name":"SPK (NW) Röjle Klint (Røjle Klint)","latitude":55.5498862039981,"longitude":9.80130929669302},{"name":"SPK (WSW) Gulebjerg_Esbjerg","latitude":55.5494585600043,"longitude":8.31613240310468},{"name":"SPK (SW) Sjelborg_Esbjerg","latitude":55.5364363802446,"longitude":8.33631054669867},{"name":"SPK (WNW) Reersø (Reersö) 1","latitude":55.5338240117212,"longitude":11.0888708253498},{"name":"SPW (WNW, ESE) Skjoldenæsholm","latitude":55.5231942980509,"longitude":11.8198746884626},{"name":"SPK (WNW)  Reersø (Reersö) 2","latitude":55.5174422723269,"longitude":11.0819935948009},{"name":"SPK (SW) Skærbæk Airpark_Fredericia","latitude":55.5104580134999,"longitude":9.63767312535706},{"name":"SPK (N) Vedelshave_Varbjerg","latitude":55.5090813242328,"longitude":9.92263706238263},{"name":"SPK (SW) Sædding Strand","latitude":55.5001265919398,"longitude":8.39021768198039},{"name":"SPW (W, E) Kragerup Mansion","latitude":55.4974,"longitude":11.3954},{"name":"SPK (WSW) Drösselbjerg (Drøsselbjerg) Strand","latitude":55.4726229111974,"longitude":11.1803885060487},{"name":"SPW (NNW, SSE) Tybrind","latitude":55.4023,"longitude":9.8615},{"name":"SPK (NE) Stevns Bøgeskoven","latitude":55.365827837227,"longitude":12.4173601464744},{"name":"SPW (NW, SE) Odense_Hollufgård","latitude":55.3602236373162,"longitude":10.4266382615312},{"name":"SPK (E-ESE) Mandelhoved_Stevns Klint_Kridtbrud","latitude":55.3260511516202,"longitude":12.4500879639715},{"name":"SPK (E-ESE) Stevns Klint 1 (Lilledal)","latitude":55.3207968149076,"longitude":12.446652567804},{"name":"SPK (E-ESE) Stevns Højerup Kirke","latitude":55.2778921061704,"longitude":12.4453394478565},{"name":"SPK (SE-ESE) Rødvig (Rödvig)_Stevns Korsnæb 1","latitude":55.2565440939515,"longitude":12.3977313398029},{"name":"SPK (SSW) Rødvig (Rödvig)_Stevns Korsnæb 2","latitude":55.2556223304801,"longitude":12.3857785127179},{"name":"SPK (SW) Sønderby_Sönderby 1","latitude":55.2282428213014,"longitude":9.92191113853029},{"name":"SPK (WSW) Sønderby_Fyn","latitude":55.2241032313735,"longitude":9.92247178233672},{"name":"SPK (SSW) Sønderby","latitude":55.219036,"longitude":9.934044},{"name":"SPK (S) Sønderby","latitude":55.2190030105727,"longitude":9.96270857880367},{"name":"SPK (SSW) Klinteby Klint 1_Bjørnebæk","latitude":55.1930199333954,"longitude":11.5421110599226},{"name":"SPK (SSW-SSE) Klinteby Klint 2","latitude":55.1908624020699,"longitude":11.5545859320099},{"name":"SPK (SSE) Halk 2","latitude":55.1839052376856,"longitude":9.65609177365874},{"name":"SPK (SE-SSE) Halk 1_Brunbjerg","latitude":55.1784254646118,"longitude":9.6442786769594},{"name":"SPK (WNW) Helnaes","latitude":55.1721920109977,"longitude":9.98401568712987},{"name":"SPK (WSW) Helnaes alternative","latitude":55.1608199651744,"longitude":9.98662525157423},{"name":"SPK (ENE) Helnaes_Hvidklint","latitude":55.1567025539361,"longitude":10.0148293313472},{"name":"SPK (W) Stejlebanke","latitude":55.1434876405516,"longitude":11.8181750433934},{"name":"SPK (SW-SSE) Knolden","latitude":55.060216390024,"longitude":10.2045672020368},{"name":"SPK (NE) Varnaes (Varnæs)","latitude":55.0414058679389,"longitude":9.58765763192727},{"name":"SPK (WSW) Emmerlev 2_Højer","latitude":54.9996556872431,"longitude":8.65176624838528},{"name":"SPK (WSW) Emmerlev_Højer","latitude":54.9905982123754,"longitude":8.65716645245062},{"name":"SPK (NW-WNW) Marsden Bay","latitude":54.9796248974529,"longitude":-1.38116233662496},{"name":"SPK (E-SE) Møns Klint (Möns Klint)","latitude":54.9580044023942,"longitude":12.5483926970522},{"name":"SPK (SE) Møns Klint (Möns Klint) 2","latitude":54.9507946030374,"longitude":12.5445389900754},{"name":"SPK (SSE-SE) Møns Klint (Möns Klint) 3","latitude":54.9463632146864,"longitude":12.540620615445},{"name":"SPK (SE) Møn Hjelm Bugt (Mön Hjelmbugt)","latitude":54.9386391228695,"longitude":12.2831032432898},{"name":"SPK (E-ESE) Mommark 2","latitude":54.9296081483967,"longitude":10.0442844820855},{"name":"SPK (E-ENE) Mommark 1","latitude":54.9169454946002,"longitude":10.0449698693773},{"name":"SPK (E-ENE) Mommark Als","latitude":54.9044455589051,"longitude":10.051783498951},{"name":"SPK (SE) Sonderborg","latitude":54.9040749889682,"longitude":9.77876912775098},{"name":"SPK (S-SE) Sonderborg","latitude":54.8981956751918,"longitude":9.75901859666353},{"name":"SPK (E-ENE) Spar Es (Spar-Es)_Broager","latitude":54.8770254125183,"longitude":9.74063630505233},{"name":"SPK (SSE-S) Kegnæshøj_Sonderby","latitude":54.8653195602378,"longitude":9.90245778340431},{"name":"SPK (SW, SE) Kegnæshøj","latitude":54.8531994890156,"longitude":9.98657970838984},{"name":"SPK (SSE) Kegnæshøj","latitude":54.8528613681718,"longitude":9.96416530013353},{"name":"SPK (SE) Skeldemark","latitude":54.8406139381625,"longitude":9.75277432174244},{"name":"SPK (NE-NNE) Stohl","latitude":54.4769489716261,"longitude":10.1510924228404},{"name":"SPW (WSW, SSW, ENE, NNE) Flugplatz Neumünster","latitude":54.0799397646147,"longitude":9.94115783267095},{"name":"SPW (WNW, ESE) Kleinkummerfeld","latitude":54.0267002116466,"longitude":10.0809573832794},{"name":"SPW (all) Hungriger Wolf _ Itzehoe","latitude":53.9916319555696,"longitude":9.5729228281636},{"name":"SPW (W, E) Uetersen","latitude":53.6496277275879,"longitude":9.70041241483136},{"name":"SPW (all) Waren_Segelflugplatz Vielist","latitude":53.5646806848614,"longitude":12.6547370366248},{"name":"SPW (SE, NW) Segelflugplatz Holste-Hellingst","latitude":53.3756013832055,"longitude":8.84907951305478},{"name":"SPW (all) Flugplatz Neustadt-Glewe","latitude":53.3607022105507,"longitude":11.6135181833834},{"name":"SPW (WSW, ENE) Müritzflugplatz_Rechlin-Lärz","latitude":53.3064459085409,"longitude":12.7467560447118},{"name":"SPW (SSW-SE) Marienheim_Lychen","latitude":53.2541828056212,"longitude":13.3674022190328},{"name":"SPW (NW-NNE) Marienheim_Lychen","latitude":53.245727178716,"longitude":13.36220400673},{"name":"SPW (NNW-NW, SSE-SE) Charlottenpolder","latitude":53.1981403673481,"longitude":7.23787590081347},{"name":"SPW (W, E) Schneverdingen_Flugfeld Reinsehlen","latitude":53.1475136787327,"longitude":9.7927292839073},{"name":"SPW (S-SE) Hörpel","latitude":53.1392972351016,"longitude":10.0334961507257},{"name":"SPW (N-NNW, S-SSE) Altenmedingen (Reisenmoor)","latitude":53.1351210455309,"longitude":10.5987744644667},{"name":"SPW (N-NW) Hörpel","latitude":53.1307754890564,"longitude":10.0354794558289},{"name":"SPW (ESE-SE) Kirchwalsede","latitude":53.0209145169417,"longitude":9.36989473900425},{"name":"SPW (WNW-NW) Kirchwalsede","latitude":53.0175204816152,"longitude":9.38151384418165},{"name":"SPW (WSW-SSE) Lüdingen","latitude":53.0137953023327,"longitude":9.48922789377443},{"name":"SPW (WSW, ENE) Lüdingen","latitude":53.0034362743972,"longitude":9.49617983636946},{"name":"SPW (N-NNE) Lüdingen","latitude":53.0029979589588,"longitude":9.49021155893509},{"name":"SPW (WSW-S) Blocksberg","latitude":52.8871275433629,"longitude":12.6988118940156},{"name":"SPW (N-ENE) Blocksberg","latitude":52.8775431661999,"longitude":12.6889821109523},{"name":"SPW (E, W) Neuruppin_Vierruthenberg","latitude":52.847128331378,"longitude":12.8242309929649},{"name":"SPW (all) Stölln","latitude":52.7411115803873,"longitude":12.3858575271165},{"name":"SPW (SW) Metzingen_Eldingen (Berliner Heide)","latitude":52.6735486356084,"longitude":10.3735434619019},{"name":"SPW (NE) Metzingen_Eldingen (Berliner Heide)","latitude":52.6659683664678,"longitude":10.3659591962781},{"name":"SPW-HG (NE, SW) Strausberg Flugplatz","latitude":52.5820475339198,"longitude":13.9176235858032},{"name":"SPW (NNW, SSE) Estorf","latitude":52.5792963765324,"longitude":9.15389086738349},{"name":"SPW (E, W) Bahrenborsteler Bruch Ost-West","latitude":52.5773005228492,"longitude":8.77017185964641},{"name":"SPW (N) Bahrenborsteler Bruch II","latitude":52.573350656389,"longitude":8.7622404097222},{"name":"SPW-HG (WSW, ENE) Kuppendorf Ultralight Airfield","latitude":52.5568724156697,"longitude":8.88378789277053},{"name":"SPW (NE, SW) Leese","latitude":52.5113135932206,"longitude":9.13094826427256},{"name":"SPW (SSW-S) Reitwein","latitude":52.4943429114221,"longitude":14.582876192591},{"name":"SPW (NNE-N) Reitwein","latitude":52.4830174732072,"longitude":14.5835806526033},{"name":"SPW (W, E) Saarmund","latitude":52.3077041206695,"longitude":13.0960423820646},{"name":"SPW (E, W) Am Deister","latitude":52.2938447976841,"longitude":9.38095165588196},{"name":"SPW (S-SSW) Engerskamp_Schnathorst","latitude":52.2798528141172,"longitude":8.72120690723796},{"name":"SPW (E) Engerskamp_Schnathorst (Mühlenflieger)","latitude":52.2711563055179,"longitude":8.72825646731273},{"name":"SPW (W) Engerskamp_Schnathorst (Mühlenflieger)","latitude":52.2703446976979,"longitude":8.73804042478009},{"name":"SP-HG (SSW-S) Porta Westfalica_Wittekindsburg","latitude":52.2468925689418,"longitude":8.88388881193044},{"name":"SPW-HG (E, W) Wittekindsburg","latitude":52.2410716614289,"longitude":8.88280587934869},{"name":"SPW (E,W) Flugplatz Melle","latitude":52.2012345868445,"longitude":8.37970432101826},{"name":"SPW (WNW, ESE) Schwitzberg","latitude":52.1962367277971,"longitude":14.5842778750633},{"name":"SPW (N, S) Pattenpühle_Flugplatz Möckern","latitude":52.1758003381161,"longitude":11.9303662308235},{"name":"SPW (W-WSW) Westerenger","latitude":52.128088848418,"longitude":8.51271148751028},{"name":"SPW (E-ENE) Westerenger","latitude":52.1265675941817,"longitude":8.50398904264248},{"name":"SPW (WSW) Häger","latitude":52.0954757095251,"longitude":8.44342696395003},{"name":"SPW (ENE) Häger (Meyer zu Rahden)","latitude":52.0935364135547,"longitude":8.43365130103953},{"name":"SP (ESE) Hameln_Ohrberg","latitude":52.0752878894493,"longitude":9.35775578787671},{"name":"SP (N) Nussberg_Eberholzen","latitude":52.0590138888889,"longitude":9.83994166666667},{"name":"SP (SW-W) Ascheloh-Hermannsweg","latitude":52.0507245364528,"longitude":8.40981018064634},{"name":"SP (SW-SSE) Börry_Am Hellberg","latitude":52.0459631319032,"longitude":9.45249138192055},{"name":"SP (NE) Ascheloh-Herrmannsweg NO (Schwedenschanze)","latitude":52.0333198943827,"longitude":8.43188085050192},{"name":"SPW (SSE, NNW) Künsebeck","latitude":52.0296957338852,"longitude":8.38193464312496},{"name":"SPW (SW) Holzer Berg_Wernershöhe_Alfeld","latitude":52.0154513961452,"longitude":9.88547113034057},{"name":"SPW (NW, SE) Leinewiesen_Pfedemarsch","latitude":51.9968433143284,"longitude":9.81912918351165},{"name":"SPW (E-ESE, W-WNW, N-NNE, S-SSW) Altes Lager","latitude":51.9948942956651,"longitude":12.9834971651487},{"name":"SP (WSW-SW) Dielmissen am Ith","latitude":51.981219401054,"longitude":9.6262013912201},{"name":"SP (W) Königszinne_Bodenwerder","latitude":51.977876275446,"longitude":9.52602080442316},{"name":"SPW (NE, SW) Coesfeld-Gaupel","latitude":51.9712053127497,"longitude":7.20972299952899},{"name":"SP (NE) Bad Pyrmont_Hohe Kugelberg","latitude":51.962378784772,"longitude":9.22724177776155},{"name":"SP-HG (E) Weserblick_Himmelspforte","latitude":51.9580672546204,"longitude":9.49648990617776},{"name":"SP (NE) Hohe - Kugelberg, Nordosthang","latitude":51.9549840423253,"longitude":9.45751630898845},{"name":"SP (NNW) Königszinne_Brökeln","latitude":51.9493382759537,"longitude":9.48680840818916},{"name":"SP (SE) Pegestorf","latitude":51.9408746031849,"longitude":9.4928415132672},{"name":"SPW (SW, NE) Oerlinghausen Segelflugplatz","latitude":51.9310015485702,"longitude":8.66601553153562},{"name":"SPW (W) Warendorf_Freckenhorst","latitude":51.9226303583445,"longitude":8.01371695535438},{"name":"SPW (E) Warendorf_Freckenhorst","latitude":51.9222519756176,"longitude":8.00512929728147},{"name":"SPW (all) Stapelburg Airfield","latitude":51.9143410129013,"longitude":10.6828638346165},{"name":"SP (NW) Rammelsberg","latitude":51.8896430697699,"longitude":10.4309568959655},{"name":"SP (N-NNE) Bad Harzburg_Butterberg","latitude":51.887830890898,"longitude":10.573990611601},{"name":"SP (SW) Rammelsberg","latitude":51.8873909573992,"longitude":10.4299430056953},{"name":"SP (NNE) Linnenkamp_Auf dem Ziegenrücken","latitude":51.869092810542,"longitude":9.66591011758478},{"name":"SP (NNW) Holzberg","latitude":51.8628553378754,"longitude":9.65249312643509},{"name":"SPW (N, S) Segelflugplatz Vinsebeck","latitude":51.8436631729207,"longitude":9.01309635396914},{"name":"SP (SSE) Heukenberg","latitude":51.8274020757772,"longitude":9.64930994039002},{"name":"SPW (E, W) Sonderlandeplatz Drosa","latitude":51.825247884285,"longitude":11.8961449380442},{"name":"SP (SW) Brenkhausen_Räuschenberg","latitude":51.8083270156759,"longitude":9.3719130805387},{"name":"SPW (E, W) Ahlen-Borbein","latitude":51.7935724161086,"longitude":7.82330148007759},{"name":"SPW (W-WSW) Cottbus Weststart","latitude":51.7681216264076,"longitude":14.3110341657663},{"name":"SPW (E-ENE) Cottbus Oststart","latitude":51.7664831413693,"longitude":14.296708070066},{"name":"SPW (WNW, ESE) Flugplatz Aschersleben","latitude":51.7656358180843,"longitude":11.4971827007823},{"name":"SP (E-SE) Höxter_Brunsberg","latitude":51.7474620240148,"longitude":9.34986422511741},{"name":"SPW (NE-ENE, SW-WSW) Köthen_Drosa","latitude":51.7241198714831,"longitude":11.9503617285609},{"name":"SP (NW) Bastenberg","latitude":51.7028456290568,"longitude":9.32378437165575},{"name":"SPW-HG (SSW) Uedem","latitude":51.6826999912679,"longitude":6.28570049658483},{"name":"SP (SE) Wahrberg","latitude":51.6767187648072,"longitude":9.94117736233965},{"name":"SPW-HG (NNE) Uedem","latitude":51.6742097852004,"longitude":6.28106474438879},{"name":"SPW (E, W) Flugplatz Wesel-Römerwardt","latitude":51.6627577427878,"longitude":6.59492855192163},{"name":"SPW (all) Wolbrechtshausen","latitude":51.64,"longitude":9.89},{"name":"SP (SSE) Siegbart","latitude":51.6102516034899,"longitude":9.40210055772589},{"name":"SPW (E-ESE, W-WNW) Kamen-Heeren","latitude":51.5915938755594,"longitude":7.70371123706886},{"name":"SPW (WNW-SW, ESE-NE) Torgau_Beilrode Agrarflugplatz","latitude":51.571309611566,"longitude":13.0539355629829},{"name":"SPW (S) Sevelen","latitude":51.4883821444171,"longitude":6.42531153707113},{"name":"SPW (E) Sevelen","latitude":51.4860902082286,"longitude":6.42183346245683},{"name":"SPW (W) Sevelen","latitude":51.4853433065218,"longitude":6.43461356768031},{"name":"SPW (S) An der Halde Norddeutschland","latitude":51.4632848691443,"longitude":6.56404948859558},{"name":"SPW (E) An der Halde Norddeutschland","latitude":51.4596831066584,"longitude":6.5577423428279},{"name":"SPW (W) An der Halde Norddeutschland","latitude":51.4582490141441,"longitude":6.56814662218044},{"name":"SPW (N) An der Halde Norddeutschland","latitude":51.4572559681077,"longitude":6.5625540487072},{"name":"SP (W-NW) Obermarsberg 1","latitude":51.4409830826492,"longitude":8.85063514830122},{"name":"SPW-HG (SSW, NNE) Kerken","latitude":51.4397800793747,"longitude":6.44570893231966},{"name":"SPW (ESE, WNW) Luftsportgelände Hain","latitude":51.4379847235158,"longitude":10.7736168356361},{"name":"SP (NNW-N) Obermarsberg 2","latitude":51.4365419677266,"longitude":8.84805225553871},{"name":"SPW (N, S) Warstein 1","latitude":51.4296695932691,"longitude":8.35456141106691},{"name":"SPW (N, S) Warstein 2","latitude":51.4275801836665,"longitude":8.33965702329916},{"name":"SPW (var) Taucha","latitude":51.3979628509841,"longitude":12.5390939372631},{"name":"SP-HG (NW) Feuerkuppe","latitude":51.3953789573524,"longitude":10.7489360363527},{"name":"SP (N-NE) Frauenberg","latitude":51.3774000072369,"longitude":10.8342761646009},{"name":"SP (E-ESE) Frauenberg Plateau","latitude":51.3765990876988,"longitude":10.8373295747722},{"name":"SPW (N, S) Flugplatz Rothenburg","latitude":51.3648757145631,"longitude":14.9518450472431},{"name":"SPW (W) Liebschützer Berg","latitude":51.353583376379,"longitude":13.1387431777086},{"name":"SP (NNW) Adorf_Wirmighausen","latitude":51.3508567797777,"longitude":8.83027307565888},{"name":"SP (W-WSW) Elleringhausen-Limberg","latitude":51.3363351244617,"longitude":8.56562473371997},{"name":"SPW (all) Auf dem Birnbaum_Vor der Sandheide","latitude":51.3322818875782,"longitude":9.09904309075464},{"name":"SP (WNW) Wixberg 2","latitude":51.3256249194727,"longitude":7.66145877066163},{"name":"SP (SE) Wixberg 1","latitude":51.3184151962811,"longitude":7.66794830856936},{"name":"SP (S) Bruchhauser Steine 2","latitude":51.3182341237698,"longitude":8.5449965090492},{"name":"SP (SW-W) Bruchhauser Steine 1","latitude":51.3161553382917,"longitude":8.54871544088964},{"name":"SP (NW) Stüppel-Fort Fun Abenteuerland","latitude":51.3143569801689,"longitude":8.42964630919253},{"name":"SPW (NE-ENE, SW-WSW) Hegenscheid-Iserlohn","latitude":51.3125821434615,"longitude":7.70317295122758},{"name":"SP (NNW) Mellbeck","latitude":51.3117507535218,"longitude":7.18654719844515},{"name":"SPW (WNW-NW, ESE-SE) Flugplatz Großenhain","latitude":51.3084977056018,"longitude":13.5497864830449},{"name":"SPW (E, W) Segelflugplatz Riesa-Canitz","latitude":51.3036086190657,"longitude":13.2218053869567},{"name":"SP (SW) Wenholthausen","latitude":51.3030610476909,"longitude":8.19080899284649},{"name":"SP (N) Nackte Halde","latitude":51.3015036024091,"longitude":8.07251492130174},{"name":"SP (SE-SSE) Nackte Halde 2_Grevenstein","latitude":51.2994737375557,"longitude":8.10985005515553},{"name":"SP (E) Willingen Sonnenhang","latitude":51.2920105453157,"longitude":8.58186922414546},{"name":"SPW (SSW) Leipzig_Cospudener See","latitude":51.2829588885026,"longitude":12.3450371896256},{"name":"SP (N-NNE) Willingen_Ettelsberg-gesperrt für Gastflieger","latitude":51.2823410895804,"longitude":8.59998401006661},{"name":"SP (SE-ESE) Sallinghausen","latitude":51.2740631322305,"longitude":8.1666581966817},{"name":"SP (S)  Welleringhausen (Kuhtenberg)","latitude":51.2728105639468,"longitude":8.71944173696313},{"name":"SPW (S, N) Auenhain","latitude":51.2726724012081,"longitude":12.4469870568316},{"name":"SP (NE-ESE) Steinmarkskopf","latitude":51.2693150496173,"longitude":8.43206633882794},{"name":"SP (SSE-S) Niedersalwey","latitude":51.263618,"longitude":8.106267},{"name":"SP (S-SE) Düdinghausen_Kahle Pön","latitude":51.2616553464695,"longitude":8.67207870450119},{"name":"SPW (NE, SW) Korbach","latitude":51.2525722344792,"longitude":8.87352560815258},{"name":"SPW (SSE, NNW) Am Luftschiff Schleppstrecke","latitude":51.2513514598531,"longitude":11.846337353785},{"name":"SPW (WSW, ENE) Am Luftschiff Schleppstrecke O-W","latitude":51.2509740436061,"longitude":11.8739777161191},{"name":"SPW (all) Laucha","latitude":51.247222222222,"longitude":11.694444444444},{"name":"SP (SW-WSW) Laucha_Dorndorf","latitude":51.2471700373106,"longitude":11.6867020238125},{"name":"SP (N-NNE) Nordhelle-Werdohl","latitude":51.2468254092612,"longitude":7.74888266402021},{"name":"SPW (NE, SW) Breckerfeld_Ehringhausen","latitude":51.2462350077516,"longitude":7.46754762181569},{"name":"SP (W-WNW) Hoher Meißner West_Uengsterode","latitude":51.2456541270861,"longitude":9.84637930186851},{"name":"SP (SSW) Störmthaler See","latitude":51.245548479716,"longitude":12.468306928576},{"name":"SP (ESE-SSE) Kella Berg","latitude":51.2429845402279,"longitude":10.0799003130956},{"name":"SPW (SSW) Störmthaler See","latitude":51.2412550251174,"longitude":12.4696766686009},{"name":"SP-HG (S) Steinbruch Saal_Rönkhausen","latitude":51.2399585148801,"longitude":7.95723798966786},{"name":"SPW (SW, NE) Segelflugplatz Edermünde_Grifte","latitude":51.2211512075275,"longitude":9.44779742848536},{"name":"SPW (all) Im kleinen Feld (Vöhl amEdersee)","latitude":51.21925,"longitude":8.931713},{"name":"SPW (ESE, NE, SW, WNW) Böhlen","latitude":51.2140053045585,"longitude":12.3631311181027},{"name":"SP-HG (ESE) Hoher Meissner Ost_Vockerode","latitude":51.2098677355715,"longitude":9.87260485386468},{"name":"SP (W-WNW) Rößberg","latitude":51.2056515268368,"longitude":8.5961864580219},{"name":"SPW (W-WSW, E-ENE) Spitzer Kalkofen_Zschochau","latitude":51.2030297281696,"longitude":13.1951592908617},{"name":"SPW-HG (NE-ENE, SW-WSW) Winterberg","latitude":51.201670913313,"longitude":8.52277689260011},{"name":"SPW (NW, SE) Halver-Hohenplanken","latitude":51.1791887598021,"longitude":7.44219940541232},{"name":"SP (NW-N) Auer Blick_Eschwege/Wanfried","latitude":51.1721598475533,"longitude":10.130118225556},{"name":"SPW (W-WNW, E-ESE) Rennefeld","latitude":51.1613773959641,"longitude":8.26178083471341},{"name":"SP (N-NW) Skihang Ebbefeld_Nordhelle (PG)","latitude":51.1511245968818,"longitude":7.75497990621298},{"name":"SP-HG (NNW) Nordhelle Startplatz","latitude":51.150359,"longitude":7.754889},{"name":"SPW (SW-SSW) Holzheim_Vockrather Acker","latitude":51.1481277694551,"longitude":6.63792352969124},{"name":"SPW (NE-NNE) Holzheim_Vockrather Acker","latitude":51.1415379245385,"longitude":6.62661522929685},{"name":"SP (SE-SSE) Miera bei Döbeln_Am Kirschberg","latitude":51.1358491021795,"longitude":13.0816997529717},{"name":"SPW (E-NE, W-SW) Teuchern","latitude":51.126214591645,"longitude":11.996056430203},{"name":"SPW (WSW-SW, ENE-NE) Hahnberg_Reinhardshausen","latitude":51.1108736062072,"longitude":9.06472518962318},{"name":"SP (NNW) Dolberg","latitude":51.1080504546074,"longitude":8.16199245682789},{"name":"SP (N) Hahnberg","latitude":51.1038879684747,"longitude":9.06227313386448},{"name":"SPW (NNE, SSW) Bad Wildungen_Auf der Schaufel","latitude":51.094147861816,"longitude":9.14815741973037},{"name":"SPW (NE, SW) Ühlhof","latitude":51.0853994836372,"longitude":7.83251108162763},{"name":"SP (SW) Mihla-Harsberg","latitude":51.0745109873513,"longitude":10.372593689364},{"name":"SPW (E, W) Flugplatz Sprossen","latitude":51.0432161005135,"longitude":12.2262903804791},{"name":"SP (S) Wichmar_Alter Weinberg","latitude":51.0423920079277,"longitude":11.6925612495732},{"name":"SPW (SW) Kaiskorb","latitude":51.0292258477908,"longitude":6.47719410911307},{"name":"SPW (NE) Kaiskorb","latitude":51.0242247859937,"longitude":6.46944464535853},{"name":"SPW (N-NW, S-SE) Leverkusen","latitude":51.0181966617911,"longitude":7.00307292326428},{"name":"SP (W) Eisenberg_Hainbachspfuhl_Battenberg","latitude":51.0159046609034,"longitude":8.61952796785628},{"name":"SPW (all) Wiese in Oberruppersdorf_Berthelsdorf","latitude":50.998362,"longitude":14.700136},{"name":"SPW (WNW, ESE) Flugplatz Pirna","latitude":50.9785627923414,"longitude":13.9099489847609},{"name":"SP (E-ESE) Jägerberg","latitude":50.9697323689741,"longitude":11.6195642234562},{"name":"SPW (W-WNW, E-ESE) Flugplatz Weimar Umpferstedt","latitude":50.9650761616092,"longitude":11.401128422062},{"name":"SPW (ENE, WSW) Linnich UL Schlepp","latitude":50.9622953548802,"longitude":6.33663618393901},{"name":"SP (SW-SSW) Hörselberg","latitude":50.9532843075094,"longitude":10.4618198778303},{"name":"SP (NW) Jenzig Nordwest","latitude":50.9399790746274,"longitude":11.6244064895434},{"name":"SP (S) Jenzig Süd","latitude":50.9389809463923,"longitude":11.6331991936759},{"name":"SP (N-NE) Quohrener Kipse","latitude":50.9354957287319,"longitude":13.7216925810554},{"name":"SPW (SE, NW) Entenberg","latitude":50.91901888841,"longitude":8.44770775660509},{"name":"SP (NE) Entenberg","latitude":50.9179742445879,"longitude":8.43409769456278},{"name":"SPW (SW-SSW, NE-NNE) Flugplatz Schöngleina","latitude":50.9166430352398,"longitude":11.7130835604471},{"name":"SP (S-SW) Hesselbach Süd (Auf der Ecke)","latitude":50.8904789770664,"longitude":8.36866815268113},{"name":"SPW (W, E) Auf dem weiten Feld","latitude":50.8783187032536,"longitude":8.36179115036696},{"name":"SP (SSW-SW) Steinbruch Achenbach_Hahn","latitude":50.8683484582982,"longitude":8.41073339455375},{"name":"SP (N-NE) Morsbach_Hohe Hardt","latitude":50.8608172522732,"longitude":7.72334586791139},{"name":"SP (N-NNW)  Blankenhain","latitude":50.8462001646059,"longitude":11.3475750873233},{"name":"SP (SW) Kahla_Leuchtenburg (Pfaffenberg)","latitude":50.8008439443449,"longitude":11.6102940903512},{"name":"SPW (N, S) Oberhövels","latitude":50.7951751677825,"longitude":7.78424243833135},{"name":"SP-HG (SW) Rossbach/Opperzau","latitude":50.7944449321215,"longitude":7.62892776063581},{"name":"SP (S-SSW) Steinberg","latitude":50.7924492729237,"longitude":11.3221556687768},{"name":"SP (SW) Engerda","latitude":50.792362392131,"longitude":11.4244243862931},{"name":"SP (S-SSE) Stachelhardt_Eitorf Honscheid","latitude":50.7809315420093,"longitude":7.37680545516622},{"name":"SP (ESE) Herchen_Höhenweg","latitude":50.7794430790847,"longitude":7.50362098810709},{"name":"SPW (ENE-NNE, WSW-SSW) Niederwillingen","latitude":50.7784124746586,"longitude":11.0469232209122},{"name":"SPW (all) Crawinkel","latitude":50.7779900487895,"longitude":10.8176828481042},{"name":"SPW (NNE-NE, SSW-SW) Bad Endbach_Schlierbach","latitude":50.7774960772931,"longitude":8.46742095443848},{"name":"SP (W-NW) Herdorf_Sassenroth","latitude":50.7698978892769,"longitude":7.92889270404944},{"name":"SPW (WSW-SW, ENE-NE) Alsfeld_Flugplatz Agathazell","latitude":50.7495764973746,"longitude":9.24634270233763},{"name":"SP (NW-NNW) Obermaubach","latitude":50.7139495383312,"longitude":6.45046854854026},{"name":"SPW (SW-S, NE-N) Malberg","latitude":50.7114702442785,"longitude":7.8265337626638},{"name":"SPW (WNW, SSE, NNW-SSE) Limbach Aßberg","latitude":50.6968288177472,"longitude":7.79879081186306},{"name":"SPW (W, E) Mudersbach","latitude":50.6926209433806,"longitude":8.49920984897056},{"name":"SPW-HG (SW-W, NE-E) Wernges","latitude":50.6843327762684,"longitude":9.4140239469516},{"name":"SPW (all) Hartenstein","latitude":50.6743867745855,"longitude":12.6841267728047},{"name":"SPW (all) Swisttal Mömerzheim","latitude":50.6719743898814,"longitude":6.88153727156535},{"name":"SPW (SW, NE) Segelflugplatz Herborn-Hörbach","latitude":50.6668746616512,"longitude":8.25644232050218},{"name":"SP (NE) Spielberg (Hümpfershausen/Friedelshausen)","latitude":50.6601994116977,"longitude":10.223899598184},{"name":"SP (N) Schwartenberg","latitude":50.6594496059081,"longitude":13.465758010077},{"name":"SP (W-NW) Schwartenberg","latitude":50.6594208771434,"longitude":13.4645713760906},{"name":"SPW (E-ESE, W-WNW) Schöneberg","latitude":50.656086385038,"longitude":7.60185538466294},{"name":"SP (NNW) Hohensolms","latitude":50.6550916941642,"longitude":8.51783825163105},{"name":"SP (all) Hohensolms","latitude":50.6532683135873,"longitude":8.52091155343643},{"name":"SPW (E, W) Eichen Nord_Döttesfeld","latitude":50.638949580127,"longitude":7.54257026403724},{"name":"SPW (NNE, SSW) Alpenrod","latitude":50.6389264521366,"longitude":7.87851055398186},{"name":"SP (S-SW) Kaltennordheim_Dachstein","latitude":50.6353030614397,"longitude":10.1764798326008},{"name":"SP (S-SSW) Tauschwitz_Rohrbahn","latitude":50.6315794275,"longitude":11.415460109722},{"name":"SPW (NE, SW) Gehn-Mechernich","latitude":50.6288181088542,"longitude":6.66714845172133},{"name":"SPW-HG (var) Dolmar-UL-Platz","latitude":50.61217680083,"longitude":10.4727362222234},{"name":"SP (NE-E) Knobelsdorf","latitude":50.6067678603182,"longitude":11.3706521292722},{"name":"SPW (S) Flugplatz Asslar","latitude":50.6047031055744,"longitude":8.4420337410571},{"name":"SPW (E) Hohen Unkel","latitude":50.6035101102979,"longitude":7.22965855384411},{"name":"SPW (W) Hohen Unkel","latitude":50.6024285219227,"longitude":7.23742196972081},{"name":"SP (W-WNW) Löhma","latitude":50.5985636911433,"longitude":11.4525546897876},{"name":"SPW (N) Flugplatz Asslar","latitude":50.5971039507451,"longitude":8.44426597283985},{"name":"SPW-HG (NW, SE) Ailertchen","latitude":50.5938292353739,"longitude":7.9456568236209},{"name":"SP (N) Altenbeuthen_Stausee","latitude":50.5936791537062,"longitude":11.5939014769263},{"name":"SPW (SW, NE) Altenbeuthen","latitude":50.5917479650448,"longitude":11.5915679303777},{"name":"SPW (all) Geba Plateau","latitude":50.5888687357618,"longitude":10.2629982330028},{"name":"SP (S-SE) Reichenhausen","latitude":50.5884373606507,"longitude":10.1270410263345},{"name":"SP (S-SSW) Finkenberg","latitude":50.5828555555556,"longitude":7.41138333333333},{"name":"SP (S) Träbes_Seeba Süd","latitude":50.5782347047887,"longitude":10.2946917266927},{"name":"SP (SW) Geba_Helmershausen Südwest","latitude":50.569170024616,"longitude":10.2557687843599},{"name":"SPW (WNW, ESE) Bad Neuenahr-Ahrweiler","latitude":50.559422345656,"longitude":7.13179103372418},{"name":"SP (SW-W) Haardtskopf","latitude":50.5585743514535,"longitude":7.43513676363027},{"name":"SPW (NW-SW, NE-SE) Segelflugplatz Vieheide_Pohlheim","latitude":50.5320327662753,"longitude":8.73072631154185},{"name":"SP (N) Krausberg","latitude":50.5286022084946,"longitude":7.05279185423728},{"name":"SP (NE-N) Zopten_Gräfenthal","latitude":50.5179473701915,"longitude":11.3295474309555},{"name":"SP (SW) Weiherkuppe","latitude":50.5112884147298,"longitude":9.91323471382007},{"name":"SPW (W-WNW, E-ESE) Mönchsheide","latitude":50.5081387985739,"longitude":7.2548118033858},{"name":"SP (NE) Abtsrodaer Kuppe_Wasserkuppe Nordost","latitude":50.5024529438966,"longitude":9.9401102410215},{"name":"SP (S) Wasserkuppe Südhang (Baude)","latitude":50.4971535103176,"longitude":9.93717971854939},{"name":"SP (W-NW) Wasserkuppe Westhang","latitude":50.497073820806,"longitude":9.93175956767293},{"name":"SP (NW-W) Wasserkuppe Pferdskopf","latitude":50.4910858723251,"longitude":9.92054786085289},{"name":"SP (NW) Henneberg","latitude":50.485876610841,"longitude":10.3404715176725},{"name":"SPW (E) Niederkleen_Langerlerhof","latitude":50.4831847355691,"longitude":8.59418620014223},{"name":"SP (S-SE) Hönningen/Ahr_Südstart","latitude":50.478737699629,"longitude":6.94798871045352},{"name":"SP (E) Hönningen Oststart","latitude":50.4703659999513,"longitude":6.94159128574771},{"name":"SP (SE-S) Krater Bausenberg","latitude":50.4648655899634,"longitude":7.22244951447853},{"name":"SPW (NE-SE, SW-NW) Wershofen/Eifel (EDRV)","latitude":50.4522,"longitude":6.78497},{"name":"SPW (SW, NE) Reichenbach","latitude":50.4303563572954,"longitude":11.4158755708709},{"name":"SP (S) Rauenstein oben","latitude":50.4246081729769,"longitude":11.04883957113},{"name":"SPW (SW, NE) Segelfluggelaende Montabaur","latitude":50.4232445245662,"longitude":7.82875065385494},{"name":"SP (E-ESE) Fichtelberg","latitude":50.4231717976669,"longitude":12.9521789113825},{"name":"SP (SSW-SE) Rauenstein_Mitte","latitude":50.422480354539,"longitude":11.0464902164255},{"name":"SP (NW) Arnsberg_Oberweissenbrunn","latitude":50.3981822763809,"longitude":9.95434907775263},{"name":"SP (NE) Kreuzberg 'Familienabfahrt'","latitude":50.3790090661644,"longitude":9.99188283298478},{"name":"SP (W-N) Arzbach (Grosser Kopf_Römerturm)","latitude":50.3698393918399,"longitude":7.7563202077841},{"name":"SP (ENE-E) Almerswind","latitude":50.3666714242125,"longitude":10.9986664081633},{"name":"SP (SE) Kreuzberg SO","latitude":50.3646290350645,"longitude":9.98109850848954},{"name":"SP (SE-SSE) Eschbach","latitude":50.3536569837301,"longitude":8.5234781546402},{"name":"SPW (NNE-N, S) Gassenreuth_3 Fichten","latitude":50.342344108234,"longitude":12.0673341074991},{"name":"SP (E) Neukenroth","latitude":50.325757841813,"longitude":11.2699994545894},{"name":"SP (SSW-SE) Rosenberg","latitude":50.317814977175,"longitude":7.46087218595511},{"name":"SP (NNE) Bellings","latitude":50.3050229172681,"longitude":9.51368785634475},{"name":"SP (N-NNW) Treisberg_Pferdskopf","latitude":50.2935217096315,"longitude":8.43078526031942},{"name":"SPW (SW-WSW) Flugplatz Neu Anspach","latitude":50.2920767390139,"longitude":8.54169813680029},{"name":"SPW (NE-ENE, SW) Flugplatz Neu Anspach","latitude":50.2857282445686,"longitude":8.52751074934732},{"name":"SP (SSW) Waldems-Reichenbach","latitude":50.2786347852562,"longitude":8.37490252425785},{"name":"SP (W) Walsdorf","latitude":50.2715020318392,"longitude":6.72049838834823},{"name":"SP (NE-SE) Ummerstadt","latitude":50.2672808284868,"longitude":10.7952809473586},{"name":"xxx SP (NW-NNE) Dreiser Weiher_Dreis-Brück","latitude":50.2586877464022,"longitude":6.78149470500258},{"name":"SP (SW-W) Michelsberg","latitude":50.251616216389,"longitude":10.160583257778},{"name":"SPW-HG (SW-WSW, NE-ENE) Hinterweiler","latitude":50.245414,"longitude":6.756345},{"name":"SP (ENE-SE) Boppard_Gedeonseck","latitude":50.2438288556339,"longitude":7.57288646666126},{"name":"SP (N-NNW) Ronneburg","latitude":50.2395298681101,"longitude":9.06394090702124},{"name":"SP (SW) Radspitze","latitude":50.2353766674592,"longitude":11.4339945402911},{"name":"SPW (SW, NE) Heidenrod-Laufenselden","latitude":50.2238591693188,"longitude":8.001625116982},{"name":"SPW (E, W) Strinz-Margarethä","latitude":50.2179055626188,"longitude":8.15104029244414},{"name":"SPW (NE, SW) Lasserg Winde","latitude":50.2171959808917,"longitude":7.3840493664056},{"name":"SP (SSE-E) Lasserg_Küppchen","latitude":50.2168193000533,"longitude":7.38441856023736},{"name":"SPW-HG (N, S) Bad Kissingen","latitude":50.2107930877698,"longitude":10.0690560072248},{"name":"SP (N-E) Bad Salzig_Hochlei-Blick (Rheintalblick)","latitude":50.1937767071571,"longitude":7.61539656822275},{"name":"SP (S) Oberstadtfeld_Lavagrube","latitude":50.1857748237936,"longitude":6.76147228461616},{"name":"SP (N) Wittelsbacher Turm","latitude":50.1631128227077,"longitude":10.075556671966},{"name":"SP (SW) Hainberg","latitude":50.1626280525276,"longitude":11.5258669181076},{"name":"SP-HG (S-SSW) Valwiger Berg (Jeiersberg)","latitude":50.1492083868022,"longitude":7.22754271268546},{"name":"SP (W-SW) Gänsberg West","latitude":50.142222,"longitude":10.057222},{"name":"SPW-HG (E, W) Flugplatz Kulmbach","latitude":50.1351301087188,"longitude":11.4599315892277},{"name":"SP (E-SE) Ofenthaler Berg_Hammelburg","latitude":50.1254657358652,"longitude":9.90980456828041},{"name":"SPW (NE, SW) Lorch-Espenschied","latitude":50.110429731195,"longitude":7.88930324152411},{"name":"SP (SSE-SSW) Calmont_Bremm","latitude":50.1068740445703,"longitude":7.11482482385198},{"name":"SP (SSW-SE) Meerfelder Maar Startplatz Süd","latitude":50.106129910278,"longitude":6.7559909819444},{"name":"SP (E) Meerfelder Maar Startplatz Ost","latitude":50.0979027911674,"longitude":6.74541550103057},{"name":"SP (W-SW) Neef_Petersberg_unterer Start","latitude":50.0941033403089,"longitude":7.14251271343324},{"name":"SP (W-SW) Neef_Petersberg_oberer Start","latitude":50.0939872074008,"longitude":7.14324814774215},{"name":"SPW (S-SSW) Euerbach_Obbach","latitude":50.0885155719977,"longitude":10.074996487773},{"name":"SPW (N-NNE) Euerbach_Obbach","latitude":50.0784312804245,"longitude":10.0718241396369},{"name":"SP (NE-E) Heuberg_Frammersbach","latitude":50.0676623471177,"longitude":9.45904072492293},{"name":"SPW (E) Euerbach_Sömmersdorf","latitude":50.064905549727,"longitude":10.0978684663817},{"name":"SPW (W) Euerbach","latitude":50.063798774414,"longitude":10.122492469069},{"name":"SP (S) Veitsberg","latitude":50.0633214200544,"longitude":11.0002779715627},{"name":"SPW (NW-NNW, SE-SSE, SW) Kasendorf_Görauer Anger_Lopp","latitude":50.0620775854999,"longitude":11.3486392489277},{"name":"SPW (NE) Görauer Anger_Wüstendorf","latitude":50.058681699737,"longitude":11.319265365601},{"name":"SP (S) Martinsthal","latitude":50.0544248840387,"longitude":8.13424575183076},{"name":"SP (NE) Görauer Anger","latitude":50.0536453976244,"longitude":11.3170132316787},{"name":"SP (W-WSW) Homburg_Setzberg","latitude":50.0261007649158,"longitude":9.79757714065934},{"name":"SP (NE) Hundsbach","latitude":50.018888888889,"longitude":9.8713888888889},{"name":"SPW (SSE, NNW) Zellhausen","latitude":50.0166308861941,"longitude":8.98483781004868},{"name":"SP (SW) Roschlaub_Obstgarten","latitude":50.0143057317113,"longitude":11.0299601708552},{"name":"SP (E) Königsheide","latitude":49.9981692231311,"longitude":11.7704605297703},{"name":"SP (SW-SSW) Edelweiß_Grainberg","latitude":49.99457529107,"longitude":9.757001855909},{"name":"SP (E) Mäusberg","latitude":49.9905440350712,"longitude":9.7216731812247},{"name":"SP (SE-S) Ürzig-Erden 2","latitude":49.985075,"longitude":7.02997222222222},{"name":"SP (SW-S) Ürzig-Erden 1","latitude":49.9849166666667,"longitude":7.01800555555556},{"name":"SP (SSE) Niederwald Denkmal","latitude":49.9819296142524,"longitude":7.90209164761071},{"name":"SP (all) Flugplatz Karlstadt","latitude":49.9713864065418,"longitude":9.79100141529819},{"name":"SPW (SW-WSW, NE-ENE) Airfield Nannhausen","latitude":49.9697056604454,"longitude":7.47787050012375},{"name":"SP (N-NNW) Eschenau","latitude":49.9661401128749,"longitude":10.5043033721343},{"name":"SP (NE) Klausenlift","latitude":49.965278,"longitude":11.843056},{"name":"SP (ENE-SE) Zeltingen-Rachtig","latitude":49.9614934740378,"longitude":6.99323087888816},{"name":"SPW (NNE, SSW) Aschaffenburg_Nilkheim","latitude":49.9590162020765,"longitude":9.1279102199595},{"name":"SP (W) Platten","latitude":49.94616638577,"longitude":6.9587230682373},{"name":"SP (S) Maring-Noviand_Wehlen-Siebenborn","latitude":49.9459186988561,"longitude":7.00358149122483},{"name":"SP (SW) Maring Noviand","latitude":49.9448294743556,"longitude":7.00807470536502},{"name":"SP (WSW) Graach","latitude":49.9443714658468,"longitude":7.05906138385596},{"name":"SP (SE) Maring Noviand","latitude":49.9427821820076,"longitude":6.98863258895102},{"name":"SP (E-NE) Laubenheim_Sponsheimer Berg","latitude":49.9300637350271,"longitude":7.89050562368357},{"name":"SPW (W-WSW) Hohenpölz","latitude":49.9124590179611,"longitude":11.165019755547},{"name":"SPW (E-ENE) Hohenpölz","latitude":49.9095988761543,"longitude":11.1505046944003},{"name":"SP (SSE) Zellingen","latitude":49.8964182708776,"longitude":9.78341345877052},{"name":"SP (SW) Thiertalberg_Thüngersheim","latitude":49.894305948703,"longitude":9.83782062328366},{"name":"SP (N) Lisberg","latitude":49.884811,"longitude":10.735949},{"name":"SP-HG (SE-NE) Neumagen-Dhron","latitude":49.877437041069,"longitude":6.88766202580501},{"name":"SP (NNW-NW) Burgen","latitude":49.8760573147739,"longitude":7.01756946394655},{"name":"SPW (ESE) Auf dem unteren Mergesfeld","latitude":49.8743057261131,"longitude":7.77025053946856},{"name":"SP (SW-SSW) Auf dem unteren Mergesfeld","latitude":49.8720299984529,"longitude":7.7875998796361},{"name":"SPW (WNW) Auf dem unteren Mergesfeld","latitude":49.8703317399092,"longitude":7.78352219295265},{"name":"SP (W-WNW) Rivenich","latitude":49.8693958801712,"longitude":6.85786197101512},{"name":"SP (NNE-N) Vogelsburger Höhe","latitude":49.8672285878814,"longitude":10.1654436684024},{"name":"SPW (SW-W) Siegritz","latitude":49.8576159218697,"longitude":11.2254949478966},{"name":"SPW (E-NE) Siegritz","latitude":49.8553160525903,"longitude":11.2116386955894},{"name":"SPW (W, E) Walbala","latitude":49.8500362517409,"longitude":11.0068215898747},{"name":"SP (SW) Klüsserath","latitude":49.847689925343,"longitude":6.87137855486786},{"name":"SP (S-SSE) Bockenau","latitude":49.83993916521,"longitude":7.67506694341341},{"name":"SPW (SW, NE) Kastl","latitude":49.826402740748,"longitude":11.90381981789},{"name":"SPW (ENE, WSW) Wallertheim","latitude":49.819258531272,"longitude":8.03479121345069},{"name":"SP (SW) Longuich _ Kenn","latitude":49.8119130318137,"longitude":6.78082496917121},{"name":"SPW (NNE-N, SSW-S, E, W) Hohenmirsberg","latitude":49.8113426511293,"longitude":11.4275257989247},{"name":"SPW (E, W) Dettelbach-Nord","latitude":49.8067044500338,"longitude":10.1280207744416},{"name":"SP (N-NNW) Norheim","latitude":49.8059758645585,"longitude":7.82297350873883},{"name":"SP (SW-W) Weiler","latitude":49.8054728848962,"longitude":7.56730431210523},{"name":"SPW (SSE-SE, NNW-NW) Flonheim_Wallertheim","latitude":49.8050381096714,"longitude":8.0289563663331},{"name":"SPW (E, W) Dietersdorf","latitude":49.7974101640082,"longitude":12.196560059405},{"name":"SP (N-NNW) Strüther Wald (Hochstetten-Dhaun)","latitude":49.7926619217307,"longitude":7.51228609605054},{"name":"SP (E) Gangelsberg_Duchroth","latitude":49.792388067278,"longitude":7.74047809028237},{"name":"SP (SW-SSW) Röttberg_Hasloch Südwest","latitude":49.7909955683419,"longitude":9.50614474980215},{"name":"SP (E, W) Dettelbach Süd","latitude":49.7905319463255,"longitude":10.1418500443858},{"name":"SPW-HG (NW, SE) Bad Sobernheim","latitude":49.7889579517095,"longitude":7.66298930859556},{"name":"SP (SSW-S) Staudernheim_Im Ruheschied","latitude":49.7885687189345,"longitude":7.70095188847627},{"name":"SP (E-SE) Boos_Staudernheim","latitude":49.7863407628325,"longitude":7.71468385959956},{"name":"SP (E-SE) Heckenkopf-Rauschen_Faulbach_Hasloch Südost","latitude":49.7822226213698,"longitude":9.46602240455284},{"name":"SP (N-NNE) Mehring","latitude":49.7812895435743,"longitude":6.83759136979282},{"name":"SP-HG (N-NNW) Riol","latitude":49.7812478468603,"longitude":6.79993544933737},{"name":"SP (SE) Meddersheim","latitude":49.7788931563558,"longitude":7.58371848282018},{"name":"SPW (WNW, ESE) Schnackenmühle","latitude":49.778389,"longitude":10.462139},{"name":"SP (SW) Vogelberg (Voglberg)","latitude":49.7775567501168,"longitude":12.081183941969},{"name":"SP (W-NW) Odernheim Weilerkopf_Duchroth Nord","latitude":49.7755296006811,"longitude":7.72253277452211},{"name":"SP (S-SSE) Dertingen","latitude":49.7723101862882,"longitude":9.61620670861659},{"name":"SP (NNW-NW) Oberweiler","latitude":49.7704566149152,"longitude":7.71902026748926},{"name":"SP (ENE-E) Odernheim am Glan (Neuberg)_Duchroth Ost","latitude":49.7680238865835,"longitude":7.6922943850604},{"name":"SP (W-SW) Langer Berg","latitude":49.763831241218,"longitude":7.71382305565496},{"name":"SPW (all) Nonroder Höhe","latitude":49.757667,"longitude":8.823778},{"name":"SP (SW-W) Odernheim SW","latitude":49.7530555555556,"longitude":7.70555555555556},{"name":"SP (N-NNW) Billings","latitude":49.7517306273192,"longitude":8.79941569895057},{"name":"SP (NE) Urphar NO","latitude":49.7455491373385,"longitude":9.55219468048518},{"name":"SP (E) Erlau","latitude":49.7427234515527,"longitude":8.82190319616701},{"name":"SP (N) Urphar","latitude":49.741448264246,"longitude":9.56459452550515},{"name":"SP (S-SSE) Busigberg_Großheubach","latitude":49.7340782245514,"longitude":9.2073726336733},{"name":"SP (SE-SSE) Raumbach_Hindenburgblick (Raumberg)","latitude":49.7268657188072,"longitude":7.65882954538671},{"name":"SP-HG (WNW) Melibokus","latitude":49.7251328223026,"longitude":8.63565204004911},{"name":"SP (W) Bürgstadt_Wannenberg","latitude":49.7211409159023,"longitude":9.28857770439905},{"name":"SP (W-SW) Walberla","latitude":49.7202602373383,"longitude":11.1521334828636},{"name":"SPW-HG (NW, SE) Flugplatz Weiden","latitude":49.6989238593006,"longitude":11.9400835804924},{"name":"SP (SSW) Lindenfels_Alter Steinbruch","latitude":49.6953749742786,"longitude":8.77600222270646},{"name":"SPW (E-ESE) Uissigheim 2_Kapellenberg","latitude":49.6846688546349,"longitude":9.54437414544272},{"name":"SPW (W) Uissigheim 1","latitude":49.6839571359725,"longitude":9.59485726552877},{"name":"SPW (WNW) Uissigheim 2_Kapellenberg","latitude":49.6833447750623,"longitude":9.55844939398907},{"name":"SPW (E) Uissigheim 1","latitude":49.681993007965,"longitude":9.57639750665332},{"name":"SP (W) Werbach","latitude":49.6818371872481,"longitude":9.64834999285751},{"name":"SPW (NE) Uissigheim 2_Kapellenberg","latitude":49.6804542879587,"longitude":9.53451149777848},{"name":"SP (SW-SSW) Stolzenberg","latitude":49.6796838531121,"longitude":7.80896732406492},{"name":"SPW-HG (E, W) Flugplatz Michelstadt","latitude":49.678570215278,"longitude":8.9721393586111},{"name":"SPW (SE-S, N-NE) Dalsheimer Oberfeld_Gundersheim Flörsheim","latitude":49.6703639042188,"longitude":8.18728754840924},{"name":"SPW (SE-S, NW-N) Großrinderfeld","latitude":49.6679664533694,"longitude":9.70574945072391},{"name":"SPW-HG (NNE, SSW) UL Flugplatz Bürstadt","latitude":49.6550226216863,"longitude":8.47386599999948},{"name":"SPW (WSW, ENE) Giebelstadt","latitude":49.6484743225027,"longitude":9.96598742679942},{"name":"SPW (W, E) Standortübungsplatz Külsheim_Hardheim","latitude":49.6455194587142,"longitude":9.51983312437544},{"name":"SPW (N, S) Truppenübungsplatz Külsheim_Hardheim","latitude":49.6424966668946,"longitude":9.52110155889546},{"name":"SPW (S) Grünsfeldhausen","latitude":49.6406733765026,"longitude":9.73529677402676},{"name":"SP (W) Schoden","latitude":49.6399722222222,"longitude":6.59371111111111},{"name":"SP (NE-ENE) Donnersberg 'Bärenloch'","latitude":49.6345105805945,"longitude":7.93131215223148},{"name":"SP (SSW) Hohenöllen","latitude":49.6246700745287,"longitude":7.62145291712983},{"name":"SP (S-SE) Sinnhöll_Offenbach-Hundheim","latitude":49.6245663865052,"longitude":7.5333930125132},{"name":"SP-HG (SW) Ockfen_Bockstein","latitude":49.6242231405333,"longitude":6.59518170119015},{"name":"SPW-HG (NNW, SSE) Segelflugplatz Heppenheim","latitude":49.6230441398062,"longitude":8.62412135903331},{"name":"SP (S-SW) Sinnhöll_Offenbach-Hundheim","latitude":49.6224588447888,"longitude":7.54158804344122},{"name":"SP (E-SE) Donnersberg_Moltkefelsen_Adlerbogen","latitude":49.6207493339408,"longitude":7.94115787519542},{"name":"SPW (ENE, WSW) Riedwiesen","latitude":49.6106228265978,"longitude":9.49418747783666},{"name":"SP (NE-N) Hockenberg","latitude":49.6069557728321,"longitude":9.48866146034806},{"name":"SP (NW-W) Hockenberg West","latitude":49.606889639761,"longitude":9.487869143486},{"name":"SP (N) Matzlesberg","latitude":49.5954496637806,"longitude":12.2117574710007},{"name":"SPW (S, N) Kützbrunn","latitude":49.5901793093623,"longitude":9.75519322673441},{"name":"SP (SW) Lautersheim","latitude":49.5840185460099,"longitude":8.10687595278016},{"name":"SPW (W-WSW) Kützbrunn","latitude":49.5759830728011,"longitude":9.74217578955141},{"name":"SPW (SW, NE) Kützbrunn","latitude":49.5755029208649,"longitude":9.74708339507423},{"name":"SP-HG (WSW-SW) Serrig","latitude":49.568947703804,"longitude":6.6157040985456},{"name":"SP (W) Schnaittach-Rothenberg","latitude":49.5566794465277,"longitude":11.3575740722149},{"name":"SP-HG (SE-ESE) Herzerberg_Pfeffelbach","latitude":49.5495602069745,"longitude":7.30810162130485},{"name":"SP (SW) Stauf West","latitude":49.5494686335562,"longitude":8.02639901747209},{"name":"SP (SE-S) Eisenberg_Stauf","latitude":49.549463164908,"longitude":8.02747347364364},{"name":"SPW (SSW-SW) Holzbronn","latitude":49.5279893546035,"longitude":9.82515461430276},{"name":"SP (NE) Buchberg_Sitzambuch","latitude":49.5146577770467,"longitude":12.0297946615624},{"name":"SP (N) Galgenberg_Gallo","latitude":49.5005586290873,"longitude":6.7402087772715},{"name":"SP (E) Schmecker_Wartturm","latitude":49.4874401590023,"longitude":9.89284669447059},{"name":"SPW (SW) Tauberberg","latitude":49.4850245952121,"longitude":9.8514614217506},{"name":"SP (ESE-SE) Winterberg_Weikersheim","latitude":49.4833143603619,"longitude":9.88859943677986},{"name":"SPW (NE) Boxberg","latitude":49.4701833333333,"longitude":9.64648333333333},{"name":"SP (W-WSW) Ölberg_Schriesheim","latitude":49.4644158524724,"longitude":8.67918378291441},{"name":"SP (E) Wehingen","latitude":49.4555304493499,"longitude":6.50327065244621},{"name":"SPW (E, W) Schwabhausen","latitude":49.4541932413893,"longitude":9.61627657261022},{"name":"SPW (S) Schwabhausen","latitude":49.4513178325809,"longitude":9.60281952425853},{"name":"SPW (ENE, WSW)  Dagenbach_Sommerboden","latitude":49.444421036192,"longitude":10.5814851886059},{"name":"SPW (NW-SE) Rüsselhausen","latitude":49.4426028114396,"longitude":9.87125959261752},{"name":"SPW (N) Schwabhausen","latitude":49.4367027649237,"longitude":9.59975601110649},{"name":"SPW (NE) Pfitzingen_Laudenbach_Honsbronn","latitude":49.4348836365852,"longitude":9.90062985168226},{"name":"SPW (SE-SSE) Schönbrunn","latitude":49.4091351660026,"longitude":8.92093696082475},{"name":"SP (W-WNW) Königstuhl","latitude":49.4039408190175,"longitude":8.72707308062845},{"name":"SPW (NW-NNW) Schönbrunn","latitude":49.4027961310222,"longitude":8.92712933368593},{"name":"SPW (ENE, WSW, N) Mitteldachstetten","latitude":49.4004334107599,"longitude":10.4532450504917},{"name":"SPW (W) Fensterbachtal_Dürnsricht","latitude":49.3979404778401,"longitude":12.0653797495728},{"name":"SPW (E) Fensterbachtal_Dürnsricht","latitude":49.3975717049661,"longitude":12.0520257852548},{"name":"SP (SE) Krautheim Startplatz","latitude":49.395362343333,"longitude":9.6489572525},{"name":"SP (SW-W) Neckargerach_Aussichtswiese","latitude":49.3923108666478,"longitude":9.08315983156334},{"name":"SPW (NE, SW) Ailringen_Rißbach","latitude":49.3806481085063,"longitude":9.7735655616639},{"name":"SP-HG (SW) Schreckhof (Westhang)","latitude":49.362299,"longitude":9.105123},{"name":"SP (SW) Schreckhof_Obrigheim","latitude":49.3605307515394,"longitude":9.10755671367777},{"name":"SPW (ENE, WSW) Segelflugplatz Haßloch (Hassloch)","latitude":49.3543496120139,"longitude":8.28434652590588},{"name":"SP (WNW, ESE) Gut Sitzenhof","latitude":49.3352887539926,"longitude":12.0556143026898},{"name":"SP (E-SE) Voithenberg","latitude":49.334629372648,"longitude":12.7917405179781},{"name":"SP (SW) Mulfingen","latitude":49.3343527038167,"longitude":9.81242004607985},{"name":"SPW (E) Mulfingen_Saubühl","latitude":49.3341372598296,"longitude":9.84111594997185},{"name":"SP (E) Mosbach_Finkenhof","latitude":49.3338763808749,"longitude":9.09171904362944},{"name":"SP (W) Dieberg","latitude":49.3284350461002,"longitude":12.8668243083148},{"name":"SPW-HG (W, E) Epfenbach","latitude":49.3274197298167,"longitude":8.91805159449257},{"name":"SPW (NW-NNW, SE-SSE) Hockenheim","latitude":49.3247139066393,"longitude":8.52824907237688},{"name":"SP (SE-SSE) Weingartshälden_Widdern","latitude":49.324679357275,"longitude":9.39994922220162},{"name":"SPW (SE) Naicha_Schmalfelden","latitude":49.3185998032135,"longitude":10.0372624081069},{"name":"SP (S) Berghalde Ensdorf","latitude":49.3175393348715,"longitude":6.78485572524065},{"name":"SP (SE) Hörnle_Jagsthausen/Olnhausen","latitude":49.313771385451,"longitude":9.43702355089835},{"name":"SPW (NW) Naicha_Schmalfelden","latitude":49.3084657062758,"longitude":10.0503076004743},{"name":"SP (N-NNE) Eschlkam","latitude":49.2922280373738,"longitude":12.9285503997243},{"name":"SP (SW) Wolfsteinberg","latitude":49.2910120264735,"longitude":11.491801441525},{"name":"SP (S) Kocherstetten_Eichberg","latitude":49.2720201024686,"longitude":9.76538243684156},{"name":"SP (S) Höhenberg","latitude":49.2688485785306,"longitude":11.4869240031558},{"name":"SP (SE-S) Blättersberg","latitude":49.2659315374221,"longitude":8.07015347924536},{"name":"SPW (NW-SW) Schwaigau","latitude":49.2540169532664,"longitude":10.403054335518},{"name":"SPW (SE, NW) Heinsheim - Birnhälde","latitude":49.2535047275918,"longitude":9.14627648047102},{"name":"SP (E-NE) Heinsheim","latitude":49.2530558622509,"longitude":9.14922565865655},{"name":"SPW (NW, SE-E) Möglingen_Wasen","latitude":49.2477719640759,"longitude":9.42414130233118},{"name":"SP (SW-W) Orensberg","latitude":49.2404528051695,"longitude":8.02645254450867},{"name":"SP (NE) Hoher Bogen_alternativ","latitude":49.236209957713,"longitude":12.9422867285848},{"name":"SP (NE) Hoher Bogen (Hohenbogen)_PG","latitude":49.2358633079984,"longitude":12.9462794923104},{"name":"SP-HG (NE) Berggasthof \"Haus Schönblick\"","latitude":49.235478152467,"longitude":12.951893806458},{"name":"SP (N) Hoher Bogen (Hohenbogen)","latitude":49.234916900602,"longitude":12.9421839357354},{"name":"SPW (ESE, WNW) Winnberg","latitude":49.2345286558901,"longitude":11.4808583593306},{"name":"SPW (ESE, WNW) Winnberg","latitude":49.2332988992666,"longitude":11.4905444227766},{"name":"SP (E-ESE) Adelberg","latitude":49.2165161155868,"longitude":7.96031171323297},{"name":"SPW-HG (WNW-NW, ESE-SE) UL-Flugplatz Forst","latitude":49.2156503153448,"longitude":11.399560985246},{"name":"SP (W-SW) Osser_Ostrý","latitude":49.2042116422746,"longitude":13.0991051482261},{"name":"SP (WNW-NW) Annweiler_Hohenberg","latitude":49.2025857981505,"longitude":8.0047521149197},{"name":"SPW (S) Waltersberg","latitude":49.1962298307111,"longitude":11.5224842086231},{"name":"SPW (E, W, S) Arnsdorf","latitude":49.1932158921028,"longitude":9.76818622425454},{"name":"SP (NE) Förlenberg","latitude":49.1918685092978,"longitude":8.00276527252877},{"name":"SP (NE-ENE) Förlenberg alternativ","latitude":49.1916762271321,"longitude":8.00470159080373},{"name":"SPW (W) Waltersberg","latitude":49.1883565664337,"longitude":11.5308658416284},{"name":"SP (W) Höllenberg","latitude":49.1882403124941,"longitude":7.88817763380362},{"name":"SP (SSW) Eberstadt_Eberfirst","latitude":49.188183,"longitude":9.322886},{"name":"SPW (N, E) Waltersberg","latitude":49.1877464356286,"longitude":11.5234279717885},{"name":"SPW (E) Offenbach 1","latitude":49.1801244114138,"longitude":8.21259813284821},{"name":"SPW (E, W) Dimbach","latitude":49.1782913843967,"longitude":9.38396326516195},{"name":"SP (S-SSW) Kaitersberg_Steinbühler Gesenke","latitude":49.1731568702958,"longitude":12.9516226686992},{"name":"SPW (W, E) Offenbach 2","latitude":49.1690890555322,"longitude":8.18146310798716},{"name":"SP (SE-ESE) Burgberg Kallmünz","latitude":49.1675646886604,"longitude":11.9550293995634},{"name":"SPW (N, S) Offenbach 3","latitude":49.1661336386395,"longitude":8.18657674425902},{"name":"SP (W) Adolzfurt_Hälden","latitude":49.1605934852253,"longitude":9.47142054370392},{"name":"SPW (SW, NE) Auf der Platte","latitude":49.1595810054274,"longitude":7.22289403636693},{"name":"SP (SSW-SW) Geddelsbacher Hang_Buchhorn (Ziegengatter)","latitude":49.1518625680969,"longitude":9.49560726556872},{"name":"SPW (E-SE, W-NW) Münzesheim","latitude":49.1290595578549,"longitude":8.72669590485353},{"name":"SP (SW) Hundsberg_Paradies","latitude":49.1269086186409,"longitude":9.40984022757561},{"name":"SPW (W, E) Weckrieden SHA","latitude":49.1244861428844,"longitude":9.7839874723387},{"name":"SPW (SW) Rosenberg_Oberacker","latitude":49.1070549798783,"longitude":8.72293104859467},{"name":"SPW (WSW, ENE) Oberacker_Flehingen","latitude":49.1057799150704,"longitude":8.78277391752594},{"name":"SPW (W-WSW) Schwaigern-Niederhofen_Deutschherrenfeld","latitude":49.1054005157266,"longitude":9.0162659645002},{"name":"SPW (E-ENE) Schwaigern-Niederhofen_Deutschherrenfeld","latitude":49.1035742296015,"longitude":9.00504159035264},{"name":"SPW (NE) Rosenberg_Oberacker","latitude":49.100737732367,"longitude":8.71612758207317},{"name":"SP (W-WNW) Bannholz_Kleingartach","latitude":49.0983692789397,"longitude":8.98839734673145},{"name":"SPW (E) Wirbertshofen","latitude":49.0980237648443,"longitude":11.4173235223564},{"name":"SP (WSW-SSW) Einkorn","latitude":49.0897836125114,"longitude":9.77624772981923},{"name":"SPW (WSW, ENE) Unterschwaningen","latitude":49.0860033108865,"longitude":10.6359750051321},{"name":"SPW (WNW) Flehingen","latitude":49.0799478880628,"longitude":8.79971231780235},{"name":"SPW (SW, SSE, NNW, NE) Waizenhofen_Espan","latitude":49.0765255611618,"longitude":11.217295671336},